state,lga,name_school,latitude_north,longitude_east,ward,number_and_street,code_school,name_type_sector,name_type_location,name_type_school,shift_system_y_n,name_type_water_source,name_type_health_facility,any_classes_held_outside_y_n,shared_facilities_y_n,multi_grade_y_n,name_type_year,male_enrol,female_enrol,total erlrolment
GOMBE,BALANGA,L.I.P PRIMARY SCHOOL TALASSE,9.9,11.68,TALASSE DONG REME,"NEAR OLD MOTOR PARK, TALASSE",1160210001,Pre-Primary and Primary,Urban,Regular,No,No Source of Safe Water,First Aid Kit,No,Yes,No,2020/2021,274,266,540
GOMBE,BALANGA,GELENGU,,,GBELENGU BALANGA,NEAR ECWA CHURCH CLINIC GELENGU,1160210002,Pre-Primary and Primary,Rural,Regular,No,No Source of Safe Water,First Aid Kit,No,Yes,No,2020/2021,263,260,523
GOMBE,BALANGA,NYUWAR,9.465485,11.459216,NYUWAR JESSU,NYUWAR,1160210003,Pre-Primary and Primary,Rural,Regular,No,Other,First Aid Kit,No,Yes,No,2020/2021,270,282,552
GOMBE,BALANGA,DADIYA,9.697045,11.516769,DADIYA HILL,DADIYA,1160210004,Pre-Primary and Primary,Rural,Regular,No,No Source of Safe Water,First Aid Kit,No,No,No,2020/2021,318,265,583
GOMBE,BALANGA,PILOT SCIENCE PRIMARY SCHOOL CHAM,9.422595,11.423781,KINDIYO,ALONG GOMBE YOLA ROAD OPPOSITE POLICE STATION CHAM,1160210005,Pre-Primary and Primary,Rural,Regular,No,No Source of Safe Water,No Health facility,No,Yes,No,2020/2021,391,271,662
GOMBE,BALANGA,MWONA,9.9717,11.673919,MWONA,MWONA,1160210006,Pre-Primary and Primary,Rural,Regular,No,Other,First Aid Kit,No,No,No,2020/2021,242,320,562
GOMBE,BALANGA,PUTOKI      PRIMARY SCHOOL,,,DEGRI,PUTOKI,1160210007,Pre-Primary and Primary,Rural,Regular,No,Well,First Aid Kit,Yes,Yes,No,2020/2021,228,208,436
GOMBE,BALANGA,BAMABAM,9.69,11.539,BAMABAM,BAMABAM,1160210008,Pre-Primary and Primary,Rural,Regular,Yes,No Source of Safe Water,First Aid Kit,No,Yes,No,2020/2021,360,310,670
GOMBE,BALANGA,JESSU,9.44,11.47,NYUWAR JESSU,JESSU,1160210009,Pre-Primary and Primary,Rural,Regular,No,No Source of Safe Water,No Health facility,No,No,No,2020/2021,133,145,278
GOMBE,BALANGA,BAKASI PRIMARY SCHOOL,9.981985,11.491634,GELENGU BALANGA,ALONG OLD BALANGA ROAD YIA BALAMSANE,1160210010,Pre-Primary and Primary,Rural,Regular,No,Borehole,No Health facility,No,No,No,2020/2021,129,139,268
GOMBE,BALANGA,BANGU,95737.0,114451.0,BANGU DALAWAJA LAFIYA,BANGU,1160210011,Pre-Primary and Primary,Rural,Regular,No,No Source of Safe Water,First Aid Kit,Yes,No,No,2020/2021,500,499,999
GOMBE,BALANGA,DALA-WAJA,9.935718,11.720138,BANGU DALAWAJA LAFIYO,DALA-WAJA,1160210012,Pre-Primary and Primary,Rural,Regular,No,No Source of Safe Water,No Health facility,No,No,No,2020/2021,239,220,459
GOMBE,BALANGA,DONG,9.950312,11.69223,TALLASSE DONG REME,DONG,1160210013,Pre-Primary and Primary,Rural,Regular,No,No Source of Safe Water,First Aid Kit,No,Yes,No,2020/2021,246,225,471
GOMBE,BALANGA,FITILAI,10.876432,11.802506,MONA,FITILAI,1160210014,Pre-Primary and Primary,Rural,Regular,No,No Source of Safe Water,First Aid Kit,Yes,Yes,No,2020/2021,142,133,275
GOMBE,BALANGA,GADAMAYO,9.699083,11.52304,GADANMAYO,GADAMAYO,1160210015,Pre-Primary and Primary,Rural,Regular,No,Borehole,No Health facility,No,Yes,No,2020/2021,374,376,750
GOMBE,BALANGA,KAFINBAWA PRIMARY SCHOOL,9.62546,11.46931,DADIYA,KAFINBAWA,1160210016,Pre-Primary and Primary,Rural,Regular,Yes,No Source of Safe Water,No Health facility,Yes,Yes,No,2020/2021,189,190,379
GOMBE,BALANGA,KOLAKU PRIMARY SCHOOL,10.38185,11.776614,,KOLAKU NEAR MATANITY,1160210017,Pre-Primary and Primary,Rural,Regular,No,No Source of Safe Water,No Health facility,Yes,No,No,2020/2021,206,171,377
GOMBE,BALANGA,PILOT SCIENCE PRIMARY SCHOOL KWARGE,9.756809,11.068549,MONA,ALONG YOLA ROAD KWARGE,1160210018,Pre-Primary and Primary,Rural,Regular,No,No Source of Safe Water,First Aid Kit,No,Yes,No,2020/2021,253,238,491
GOMBE,BALANGA,KINDIYO PRIMARY SCHOOL,,,KINDIYO,KINDIYO,1160210019,Pre-Primary and Primary,Rural,Regular,Yes,No Source of Safe Water,First Aid Kit,No,Yes,No,2020/2021,113,126,239
GOMBE,BALANGA,LAFIYA    PRIMARY SCHOOL,,,B ANGU DALAWAJA WALALUNGUDA,LAFIYA,1160210020,Pre-Primary and Primary,Rural,Regular,No,No Source of Safe Water,No Health facility,Yes,No,No,2020/2021,174,179,353
GOMBE,BALANGA,LOJAH,9.727322,11.649407,MONA,LOJAH,1160210021,Pre-Primary and Primary,Rural,Regular,No,No Source of Safe Water,No Health facility,Yes,Yes,No,2020/2021,204,221,425
GOMBE,BALANGA,LOFIYO  PRIMARY SCHOOL,9.63576,11.39046,DADIYA HILL,LOFIYO DADIYA,1160210022,Pre-Primary and Primary,Rural,Regular,No,Borehole,First Aid Kit,Yes,Yes,No,2020/2021,179,201,380
GOMBE,BALANGA,MAITUNKU  PRIMARY SCHOOL,96002752.0,11519125.0,MAITUNKU DADIYA,NEAR  JUMMAT MOSQUE MAITUNKU,1160210023,Pre-Primary and Primary,Rural,Regular,Yes,No Source of Safe Water,First Aid Kit,Yes,Yes,No,2020/2021,142,142,284
GOMBE,BALANGA,HEME  PRIMARY SCHOOL,9.7427466,1.80703,NYUWAR JESSU,HEME,1160210024,Pre-Primary and Primary,Rural,Regular,No,No Source of Safe Water,No Health facility,No,No,No,2020/2021,170,119,289
GOMBE,BALANGA,KULANI PRIMARY SCHOOL,9.496,11.374,DEGRI SIKKAM KULANI,NEAR ECWA CHURCH KULANI,1160210025,Pre-Primary and Primary,Rural,Regular,No,No Source of Safe Water,First Aid Kit,No,Yes,No,2020/2021,255,203,458
GOMBE,BALANGA,SABARA   LOLU PRIMARY SCHOOL,9.64968,11.4832,DADIYA HILL,ALONG BAMBAM ROAD,1160210026,Pre-Primary and Primary,Rural,Regular,No,Other,No Health facility,Yes,No,No,2020/2021,48,57,105
GOMBE,BALANGA,SWA   PRIMARY SCHOOL,,,SWA   WALA REFELE GASI,OPPOSITE MATERNITY CLINIC   SWA,1160210027,Pre-Primary and Primary,Rural,Regular,No,Borehole,No Health facility,No,Yes,No,2020/2021,207,228,435
GOMBE,BALANGA,YELWA PRIMARY SCHOOL,9.67714,11.4762,DADIYA,"YELWA DADIYA., NEAR RIVER YELWA",1160210028,Pre-Primary and Primary,Rural,Regular,No,No Source of Safe Water,No Health facility,No,Yes,No,2020/2021,142,131,273
GOMBE,BALANGA,WALA-WAJA,9.991043,11.673702,SWA,ALON GASI ROAD,1160210029,Pre-Primary and Primary,Rural,Regular,No,No Source of Safe Water,No Health facility,Yes,No,No,2020/2021,97,108,205
GOMBE,BALANGA,BALANGA,9945832.0,11598500.0,GELENGU BALANGA,NEAR ECWA CHURCH BALANGA GARU,1160210030,Pre-Primary and Primary,Rural,Regular,No,Borehole,First Aid Kit,No,Yes,No,2020/2021,79,96,175
GOMBE,BALANGA,GUMSA   PRIMARY SCHOOL,9.955973,11.59827,GELENGU B ALANGA,ALONG BALANGA ROAD,1160210031,Pre-Primary and Primary,Rural,Regular,No,Borehole,No Health facility,No,No,No,2020/2021,99,82,181
GOMBE,BALANGA,GURMA,94715.0,113828.0,DEGRI KULANI SIKKAM,GURMA,1160210032,Pre-Primary and Primary,Rural,Regular,Yes,No Source of Safe Water,First Aid Kit,Yes,Yes,No,2020/2021,137,172,309
GOMBE,BALANGA,LAJANGARA,10.66201,11.617637,SWA,ALONG GOMBE ROAD NEAR DASA BRIGDE,1160210033,Pre-Primary and Primary,Rural,Regular,No,Borehole,No Health facility,Yes,Yes,No,2020/2021,167,117,284
GOMBE,BALANGA,LOBWARE PRIMARY SCHOOL,9.62619,11.424501,DAIDIYA  HILL,LODIP LOBWARE,1160210034,Pre-Primary and Primary,Rural,Regular,No,Other,First Aid Kit,Yes,Yes,No,2020/2021,103,85,188
GOMBE,BALANGA,SIKKAM,9.82,11.43,DEGRI,SIKKAM,1160210035,Pre-Primary and Primary,Rural,Regular,No,No Source of Safe Water,No Health facility,No,No,No,2020/2021,264,337,601
GOMBE,BALANGA,WALA LUNGUDA PRIMARY SCHOOL,9.5626,11.497,BA NGU DALAWAJA WALA LUNGUDA,WALA  LUNGUDA VILLAGE,1160210036,Pre-Primary and Primary,Rural,Regular,No,No Source of Safe Water,No Health facility,Yes,No,No,2020/2021,141,190,331
GOMBE,BALANGA,YOLDE  PRIMARY SCHOOL,9.432308404,11.452154636,KINDIYO,ALONG YOLA ROAD NEAR YOLDE MOTOR PARK,1160210037,Pre-Primary and Primary,Rural,Regular,No,Borehole,First Aid Kit,No,Yes,No,2020/2021,146,163,309
GOMBE,BALANGA,CHESSI  PRIMARY SCHOOL,9.5063,11.3754,DEGRI SIKKAM KULANI,CHESSI,1160210038,Pre-Primary and Primary,Rural,Regular,No,No Source of Safe Water,First Aid Kit,No,No,No,2020/2021,227,220,447
GOMBE,BALANGA,DEGRI,,,DEGRI KULANI SIKKAM,DEGRI,1160210039,Pre-Primary and Primary,Rural,Regular,No,No Source of Safe Water,No Health facility,No,Yes,Yes,2020/2021,171,132,303
GOMBE,BALANGA,DELEH PRIMARY SCHOOL,9.74,11.99,NYUWAR JESSU,"DELEH, NEAR JIRWA RIVER, DELEH JESSU",1160210040,Pre-Primary and Primary,Rural,Regular,No,No Source of Safe Water,No Health facility,Yes,No,Yes,2020/2021,92,104,196
GOMBE,BALANGA,JUNGE  PRIMARY,9.932663,11.668037,TALASSE DNG REME,JUNGE,1160210042,Pre-Primary and Primary,Urban,Regular,No,No Source of Safe Water,No Health facility,No,No,No,2020/2021,101,105,206
GOMBE,BALANGA,KEMBU PRIMARY SCHOOL,10.023735,11.581565,GELENGU/BALANGA,"OPPOSITE KWANCHINJAU VILLAGE, KEMBU",1160210043,Pre-Primary and Primary,Rural,Regular,No,Borehole,No Health facility,Yes,No,No,2020/2021,116,72,188
GOMBE,BALANGA,KORE,,,DEGRI KULANI SIKKAM,KORE,1160210044,Pre-Primary and Primary,Rural,Regular,Yes,No Source of Safe Water,First Aid Kit,No,Yes,No,2020/2021,226,210,436
GOMBE,BALANGA,KUMTUR  PRIMARY SCHOOL,9.785,11.698,KINDIYO,NEAR DISPENSARY KUMTUR,1160210045,Pre-Primary and Primary,Rural,Regular,No,No Source of Safe Water,First Aid Kit,Yes,No,No,2020/2021,165,148,313
GOMBE,BALANGA,LABUN,,,KINDIYO,LABUN,1160210046,Pre-Primary and Primary,Rural,Regular,No,No Source of Safe Water,No Health facility,No,No,No,2020/2021,148,191,339
GOMBE,BALANGA,YANG,,,KULANI DEGRI SIKKAM,NEAR CENTRAL MOSQUE YANG,1160210047,Pre-Primary and Primary,Rural,Regular,No,No Source of Safe Water,No Health facility,No,No,No,2020/2021,98,102,200
GOMBE,BALANGA,DEGRI NOMADIC,9.84867,11.683662,DEGRI,DEGRI,1160210048,Pre-Primary and Primary,Rural,Nomadic (Migrants),No,No Source of Safe Water,No Health facility,No,No,No,2020/2021,91,85,176
GOMBE,BALANGA,DUNGAJE PRIMARY SCHOOL,9.727612,11.649909,MONA,DUNGAJE,1160210049,Pre-Primary and Primary,Rural,Regular,No,Other,First Aid Kit,No,Yes,No,2020/2021,126,131,257
GOMBE,BALANGA,GWANTI NOMADIC,,,KINDIYO,GWANTI,1160210050,Pre-Primary and Primary,Rural,Nomadic (Migrants),No,No Source of Safe Water,No Health facility,No,Yes,Yes,2020/2021,75,71,146
GOMBE,BALANGA,NYAPAWA NOMADIC PRIMARY SCHOOL,9.992972,11.702422,TALASSE,NYAPAWA,1160210051,Pre-Primary and Primary,Rural,Regular,No,No Source of Safe Water,First Aid Kit,No,No,No,2020/2021,97,111,208
GOMBE,BALANGA,TIYO NOMADIC PRIMARY SCHOOL,9.94969,11.703685,BANGU,DEMI DALAWAJA NEAR DAGACHI'S RESIDENCE,1160210052,Pre-Primary and Primary,Rural,Nomadic (Migrants),No,No Source of Safe Water,No Health facility,Yes,No,No,2020/2021,226,212,438
GOMBE,BALANGA,WURO JABBI,9.951823,11.730678,B ANGU DALAWAJA LAFIYA,WURO JABBI,1160210053,Pre-Primary and Primary,Rural,Regular,No,No Source of Safe Water,No Health facility,No,No,No,2020/2021,101,85,186
GOMBE,BALANGA,BAGLANG NOMADIC PRIMARY SCHOOL,9.4141,11.268,DADIYA,BAGLANG             A LONG GOMBE YOLA ROAD,1160210054,Pre-Primary and Primary,Rural,Nomadic (Migrants),No,Other,No Health facility,Yes,No,No,2020/2021,93,103,196
GOMBE,BALANGA,BALAM SANE,10.003111,11.564185,GELENGU B ALANGA,NEAR HEALTH CLINIC,1160210055,Pre-Primary and Primary,Rural,Regular,No,No Source of Safe Water,No Health facility,Yes,Yes,No,2020/2021,133,101,234
GOMBE,BALANGA,BORMI PRIMARY SCHOOL,9.583,11.4,TALASSE DONG REME,"NASARAWA QUARTERS, TALASSE",1160210056,Pre-Primary and Primary,Rural,Regular,Yes,Borehole,No Health facility,No,Yes,No,2020/2021,196,262,458
GOMBE,BALANGA,BWALU NOMADIC,9821.0,11.713,DEGRI,BWALU,1160210057,Pre-Primary and Primary,Rural,Nomadic (Migrants),No,No Source of Safe Water,No Health facility,No,No,No,2020/2021,130,93,223
GOMBE,BALANGA,BULER,,,MONA,BULER,1160210058,Pre-Primary and Primary,Rural,Regular,No,Borehole,First Aid Kit,No,Yes,Yes,2020/2021,271,265,536
GOMBE,BALANGA,DAKAWAL NOMADIC PRIMARY SCHOOL,9.4415,11.4326,KINDIYO,NEAR UPPER BENUE RIVER BASIN CHAM DAKAWAL,1160210059,Pre-Primary and Primary,Rural,Nomadic (Migrants),No,No Source of Safe Water,First Aid Kit,Yes,Yes,No,2020/2021,205,173,378
GOMBE,BALANGA,DORAWA,9.62915,11.48648,DADIYA HILL,DORAWA,1160210060,Pre-Primary and Primary,Rural,Regular,No,Borehole,First Aid Kit,Yes,Yes,No,2020/2021,95,106,201
GOMBE,BALANGA,DOGON DUTSE,9.690372,11.476748,DADIYA HILL WARD,ALONG GOMBE BAMBAM ROAD,1160210061,Pre-Primary and Primary,Rural,Regular,No,No Source of Safe Water,First Aid Kit,No,No,No,2020/2021,83,117,200
GOMBE,BALANGA,KWASI PRIMARY SCHOOL,,,KINDIYO,ALONG KWASI MONA ROAD,1160210062,Pre-Primary and Primary,Rural,Regular,No,No Source of Safe Water,No Health facility,Yes,No,No,2020/2021,94,108,202
GOMBE,BALANGA,LAURA,,,BANGU DALAWAJA LAFIYA,LAURA,1160210063,Pre-Primary and Primary,Rural,Regular,No,No Source of Safe Water,No Health facility,Yes,No,No,2020/2021,127,138,265
GOMBE,BALANGA,PARE  PRIMARY SCHOOL,9.4817,11.3545,DEGRI KULANI SIKKAM,NEAR JIBWIS MOSQUE PARE,1160210064,Pre-Primary and Primary,Rural,Regular,No,No Source of Safe Water,First Aid Kit,Yes,No,No,2020/2021,225,211,436
GOMBE,BALANGA,WALNYU,9.844,11.763,DEGRI KULANI SIKKAM,WALNYU,1160210065,Pre-Primary and Primary,Rural,Regular,No,No Source of Safe Water,No Health facility,Yes,No,Yes,2020/2021,125,114,239
GOMBE,BALANGA,BARE,9.4338765,11.397605,MWONA,BARE,1160210066,Pre-Primary and Primary,Rural,Regular,No,No Source of Safe Water,No Health facility,Yes,No,Yes,2020/2021,148,198,346
GOMBE,BALANGA,CHING,9.87653,11.887322,DEGRI SIKKAM KULANI,CHING,1160210067,Pre-Primary and Primary,Rural,Regular,No,Borehole,First Aid Kit,No,No,Yes,2020/2021,154,135,289
GOMBE,BALANGA,BAKWENA  PRIMARY SCHOOL,10.02919,11.645477,SWA,BAKWENA  PRIMARY SCHOOL,1160210068,Pre-Primary and Primary,Rural,Regular,No,No Source of Safe Water,No Health facility,No,No,No,2020/2021,128,144,272
GOMBE,BALANGA,JAMJARA PRIMARY SCHOOL,9.914102,11.624527,TALASSE DONG REME,JAMJARA,1160210069,Pre-Primary and Primary,Rural,Regular,No,No Source of Safe Water,No Health facility,Yes,No,Yes,2020/2021,137,160,297
GOMBE,BALANGA,LUKI PRIMARY SCHOOL,9.98822,11.9976,DEGRI,NEAR TARNI MOSQUE BALANGA LOCAL GOVT,1160210070,Pre-Primary and Primary,Rural,Regular,No,No Source of Safe Water,No Health facility,Yes,No,Yes,2020/2021,91,89,180
GOMBE,BALANGA,LUNI  PRIMARY SCHOOL,9.851427,11.646988,DEGRI KULANI SIKKAM,LUNI,1160210071,Pre-Primary and Primary,Rural,Regular,No,No Source of Safe Water,First Aid Kit,Yes,No,Yes,2020/2021,53,41,94
GOMBE,BALANGA,REFELE,10.026182,,SWA,REFELE,1160210072,Pre-Primary and Primary,Rural,Regular,No,Borehole,No Health facility,No,No,No,2020/2021,132,131,263
GOMBE,BALANGA,GADAN TABA PRIMARY SCHOOL,9.69,11.49,DADIYA,"ALONG GOMBE-YOLA ROAD, GADAN TABA",1160210073,Pre-Primary and Primary,Rural,Regular,No,No Source of Safe Water,No Health facility,No,No,No,2020/2021,104,99,203
GOMBE,BALANGA,GILINGITU    PRIMARY SCHOOL,,,NYUWAR JESSU,GILINGITU,1160210074,Pre-Primary and Primary,Rural,Regular,No,No Source of Safe Water,First Aid Kit,No,No,No,2020/2021,267,224,491
GOMBE,BALANGA,REME PRIMARY SCHOOL,9908599.0,11655791.0,TALASSE DONG REME,REME,1160210075,Pre-Primary and Primary,Rural,Regular,Yes,No Source of Safe Water,First Aid Kit,No,Yes,Yes,2020/2021,318,291,609
GOMBE,BALANGA,JAUROTUKUR,9.666098,11.534328,BAMBAM,OPPOSITE NASARAWO JAURO TUKUR,1160210076,Pre-Primary and Primary,Rural,Regular,No,Other,No Health facility,Yes,No,No,2020/2021,128,105,233
GOMBE,BALANGA,JONKO,9.739474,11.815847,NYUWAR JESSU,JONKO,1160210077,Pre-Primary and Primary,Rural,Regular,No,No Source of Safe Water,No Health facility,No,No,No,2020/2021,128,125,253
GOMBE,BALANGA,KENKENE,9.108756,11.49889,MONA,KENKENE,1160210078,Pre-Primary and Primary,Rural,Regular,No,Other,First Aid Kit,No,No,Yes,2020/2021,135,192,327
GOMBE,BALANGA,KWARI PRIMARY SCHOOL,9.982476,11.768907,MONA,KWARI ALONG YOLA ROAD,1160210079,Pre-Primary and Primary,Rural,Regular,No,Well,First Aid Kit,No,Yes,Yes,2020/2021,211,162,373
GOMBE,BALANGA,LOBATI,9.59248,11.49248,DADIYA,LOBATI,1160210081,Pre-Primary and Primary,Rural,Regular,No,No Source of Safe Water,No Health facility,Yes,No,Yes,2020/2021,115,121,236
GOMBE,BALANGA,KWASI KUMTUR,9.784,11.688,KINDIYO,KWASI KUMTUR,1160210082,Pre-Primary and Primary,Rural,Regular,No,No Source of Safe Water,First Aid Kit,Yes,No,Yes,2020/2021,113,110,223
GOMBE,BALANGA,LOGOLWA,9.589207,11.386695,DADIYA HILL,LOGOLWA,1160210083,Pre-Primary and Primary,Rural,Regular,No,Other,No Health facility,Yes,No,No,2020/2021,110,105,215
GOMBE,BALANGA,NASARAWO NOMADIC,9.66028,11.523332,,NASARAWO,1160210084,Pre-Primary and Primary,Rural,Nomadic (Migrants),No,Other,No Health facility,Yes,No,No,2020/2021,85,90,175
GOMBE,BALANGA,PIDAJAWA PRIMARY SCHOOL,9.4838,11.3734,DEGRI KULANI SIKKAM,PIDAJAWA,1160210085,Pre-Primary and Primary,Rural,Regular,No,No Source of Safe Water,No Health facility,Yes,No,No,2020/2021,108,104,212
GOMBE,BALANGA,TSIBO PRIMARY SCHOOL,,,NYUWAR JESSU,ALONG NYUWAR ROAD,1160210086,Pre-Primary and Primary,Rural,Regular,No,Other,No Health facility,No,No,No,2020/2021,35,28,63
GOMBE,BALANGA,TSWAKU,9.42259,10.4245,NYUWAR JESSU,TSWAKU,1160210087,Pre-Primary and Primary,Rural,Regular,No,No Source of Safe Water,First Aid Kit,No,No,No,2020/2021,94,109,203
GOMBE,BALANGA,BOKABUNDI,,,BANGU DALAWAJA LAFIYA,BOKABUNDI    VILLAGE,1160210088,Pre-Primary and Primary,Rural,Regular,No,No Source of Safe Water,No Health facility,Yes,No,No,2020/2021,104,149,253
GOMBE,BALANGA,YEMBWARE PRIMARY SCHOOL,9.566225,11.43171,DADIYA HILL,"YEMBWARE, BAYAN DUTSEN DADIYA",1160210089,Pre-Primary and Primary,Rural,Regular,No,No Source of Safe Water,No Health facility,No,No,No,2020/2021,157,102,259
GOMBE,BALANGA,LWEBE PRIMARY SCHOOL,9.421,11.4299,KINDIYO,LWEBE,1160210090,Pre-Primary and Primary,Rural,Regular,Yes,No Source of Safe Water,No Health facility,No,Yes,Yes,2020/2021,74,115,189
GOMBE,BALANGA,TARI,9.7276611,11.649989,MONA,TARI,1160210091,Pre-Primary and Primary,Rural,Regular,No,Other,No Health facility,No,No,No,2020/2021,141,150,291
GOMBE,BALANGA,LOBE KWANG PRIMARY SCHOOL,9.63372,11.50301,DADIYA,"LOBE KWANG, DADIYA",1160210092,Pre-Primary and Primary,Rural,Regular,No,Other,First Aid Kit,Yes,No,No,2020/2021,110,67,177
GOMBE,BALANGA,LOLUBA,9.627477,11.41485,DADIYA HILL,LOLUBA,1160210093,Pre-Primary and Primary,Rural,Regular,No,No Source of Safe Water,No Health facility,Yes,No,No,2020/2021,117,63,180
GOMBE,BALANGA,YULU  PRIMARY SCHOOL,,,BAMABAM,YULU  ALONG YOLA ROAD BAMBAM,1160210094,Pre-Primary and Primary,Rural,Regular,No,No Source of Safe Water,No Health facility,Yes,No,No,2020/2021,111,147,258
GOMBE,BALANGA,GURI PRIMARY SCHOOL,,,DEGRI KULANI SIKKAM,NEAR CENTRAL MOSQUE,1160210095,Pre-Primary and Primary,Rural,Regular,No,No Source of Safe Water,First Aid Kit,No,No,No,2020/2021,95,147,242
GOMBE,BALANGA,SAI PRIMARY SCHOOL,9.4745,11.4745,DEGRI KULANI SIKKAM,"NEAR MARKET, SAI",1160210096,Pre-Primary and Primary,Rural,Regular,No,Other,First Aid Kit,No,No,Yes,2020/2021,107,66,173
GOMBE,BALANGA,TUNE,9.7854,11.6954,"DEGRI , SIKKAM KULANI",NEAR BAPTIST CHURCH TUNE,1160210097,Pre-Primary and Primary,Rural,Regular,No,Other,First Aid Kit,Yes,No,No,2020/2021,100,107,207
GOMBE,BALANGA,C/YORIYO PRIMARY SCHOOL,9.8,11.66,DEGRI,"NEAR VOCATIONAL SCHOOL PUTOKI, C/YORIYO",1160210098,Pre-Primary and Primary,Rural,Regular,Yes,Borehole,First Aid Kit,No,No,No,2020/2021,131,147,278
GOMBE,BALANGA,BUTA,9.4913,11.3841,degri kulani sikkam,BUTA,1160210099,Pre-Primary and Primary,Rural,Regular,No,No Source of Safe Water,No Health facility,No,No,Yes,2020/2021,82,75,157
GOMBE,BALANGA,GODOBE,9.699887,11.532442,BAMBAM,ALONG YOLA ROAD,1160210100,Pre-Primary and Primary,Rural,Regular,No,No Source of Safe Water,No Health facility,No,No,No,2020/2021,97,128,225
GOMBE,BALANGA,GALADIMA,9899521.0,11672496.0,TGALASSE DONG REME,GALADIMA,1160210101,Pre-Primary and Primary,Rural,Regular,No,No Source of Safe Water,First Aid Kit,No,No,Yes,2020/2021,205,186,391
GOMBE,BALANGA,GARIN KUKA,,,GELENGU BALANGA,GARIN KUKA,1160210102,Pre-Primary and Primary,Rural,Regular,No,No Source of Safe Water,No Health facility,Yes,No,No,2020/2021,72,65,137
GOMBE,BALANGA,KONDI  PRIMARY SCHOOL,9.96,11.69,TALASSE  DONG REME,ALONG DONG REME AND BANGU ROAD,1160210103,Pre-Primary and Primary,Urban,Regular,No,No Source of Safe Water,First Aid Kit,No,No,No,2020/2021,125,113,238
GOMBE,BALANGA,MAIDARA,10.05,11.6756,SWA,MAIDARA,1160210104,Pre-Primary and Primary,Rural,Regular,No,No Source of Safe Water,No Health facility,,No,No,2020/2021,96,70,166
GOMBE,BALANGA,BAURE,,,BANGU DALAWAJA LAFIYA,ALONG LAFIYA ROAD,1160210105,Pre-Primary and Primary,Rural,Regular,No,Other,First Aid Kit,Yes,No,No,2020/2021,55,66,121
GOMBE,BALANGA,BINTUGAI,9.59344,11.478215,,BINTUGAI,1160210106,Pre-Primary and Primary,Rural,Regular,No,No Source of Safe Water,No Health facility,No,No,No,2020/2021,93,91,184
GOMBE,BALANGA,BWAZA  PRIMARY SCHOOL,,,NYUWAR JESSU,BWAZA    OPPOSITE AREA COURT NYUWAR,1160210107,Pre-Primary and Primary,Rural,Regular,No,No Source of Safe Water,First Aid Kit,No,No,No,2020/2021,48,41,89
GOMBE,BALANGA,CHIBRAH,,,,CHIBRAH,1160210108,Pre-Primary and Primary,Rural,Regular,No,No Source of Safe Water,First Aid Kit,No,No,No,2020/2021,60,46,106
GOMBE,BALANGA,DABAN MAGARYA,10.07151,11.649632,SWA,DABAN MAGARYA,1160210109,Pre-Primary and Primary,Rural,Regular,No,No Source of Safe Water,No Health facility,No,No,No,2020/2021,92,29,121
GOMBE,BALANGA,CHINTO,9671672.0,11397185.0,LOYULME,NEAR VILLAGE HEAD RESIDENCE CHINTO,1160210110,Pre-Primary and Primary,Rural,Regular,No,Borehole,First Aid Kit,Yes,No,No,2020/2021,176,104,280
GOMBE,BALANGA,GABAKISHAU,,,NYUWAR JESSU,OPPOSITE FIRST AFRICAN CHURCH HEME,1160210111,Pre-Primary and Primary,Rural,Regular,No,No Source of Safe Water,No Health facility,Yes,No,No,2020/2021,103,81,184
GOMBE,BALANGA,DONGAJE NOMADIC PRIMARY SCHOOL,9.71508,11.496754,MONA,ALONG DONGAJE BEKWA ROAD MONA,1160210112,Pre-Primary and Primary,Rural,Nomadic (Migrants),No,No Source of Safe Water,No Health facility,Yes,No,No,2020/2021,62,69,131
GOMBE,BALANGA,GANGAWARE,,,GELENGU BALANGA,GANGAWARE,1160210113,Pre-Primary and Primary,Rural,Regular,No,Borehole,No Health facility,Yes,No,No,2020/2021,108,89,197
GOMBE,BALANGA,GASI PRIMARY SCHOOL,,,SWA,GASI,1160210114,Pre-Primary and Primary,Rural,Regular,No,No Source of Safe Water,No Health facility,Yes,No,No,2020/2021,143,147,290
GOMBE,BALANGA,KWALI PRIMARI SCHOOL,9.914021,11.684094,TALASSE DONG REME,KWALI,1160210115,Pre-Primary and Primary,Rural,Regular,No,No Source of Safe Water,No Health facility,No,No,No,2020/2021,116,80,196
GOMBE,BALANGA,TAKASA,,,GELENGU B ALANGA,TAKASA,1160210116,Pre-Primary and Primary,Rural,Regular,No,No Source of Safe Water,First Aid Kit,No,No,No,2020/2021,113,138,251
GOMBE,BALANGA,TIYAKUNU,9.5747,11.476,BANGU,TIYAKUNU  VILLAGE,1160210117,Pre-Primary and Primary,Rural,Regular,No,No Source of Safe Water,No Health facility,Yes,No,No,2020/2021,100,137,237
GOMBE,BALANGA,WADACHI     PRIMARY SCHOOL,10.047728,11.602735,SWA,WADACHI,1160210118,Pre-Primary and Primary,Rural,Regular,No,No Source of Safe Water,No Health facility,Yes,No,No,2020/2021,168,134,302
GOMBE,BALANGA,WALADUTSE P.S.,,,BANGU DALAWAJA WALALUNGUDA,WALA DUTSE,1160210119,Pre-Primary and Primary,Rural,Regular,No,No Source of Safe Water,No Health facility,Yes,No,No,2020/2021,83,105,188
GOMBE,BALANGA,YANG SIKKAM PRIMARY SCHOOL,9.795,11.681,DEGRI,NEAR HEALTH CLINIC YANG SIKKAM,1160210120,Pre-Primary and Primary,Rural,Regular,No,No Source of Safe Water,First Aid Kit,No,No,No,2020/2021,104,128,232
GOMBE,BALANGA,CHAMCHIYO,9.4818,11.3546,DEGRI KULANI SIKKAM,CHAMCHIYO,1160210121,Pre-Primary and Primary,Rural,Regular,No,No Source of Safe Water,First Aid Kit,No,No,No,2020/2021,113,90,203
GOMBE,BALANGA,GURSAI,958825.0,1140493.0,TALASSE,GURSAI,1160210122,Pre-Primary and Primary,Rural,Regular,No,Borehole,First Aid Kit,No,No,No,2020/2021,66,51,117
GOMBE,BALANGA,YULTEN PRIMARY SCHOOL,,,DADIYA HILL,TENTERE LOYULME,1160210123,Pre-Primary and Primary,Rural,Regular,No,No Source of Safe Water,No Health facility,Yes,No,No,2020/2021,87,101,188
GOMBE,BALANGA,YADI NOMADIC PRIMARY SCHOOL,9427.0,114622.0,KINDIYO,YADI ALONG YOLA ROAD,1160210124,Pre-Primary and Primary,Rural,Nomadic (Migrants),No,No Source of Safe Water,First Aid Kit,Yes,No,No,2020/2021,62,63,125
GOMBE,BALANGA,DONGOLE PRIMARY SCHOOL,9.923175,11.656835,TALASSE/DONG/REME,DONGOLE,1160210125,Pre-Primary and Primary,Rural,Regular,No,No Source of Safe Water,First Aid Kit,No,Yes,No,2020/2021,185,214,399
GOMBE,BALANGA,BAKWALANE  PRIMARY SCHOOL,9.9734,11.6807,TALASSE DONG REME,OPPOSITE NATIONAL UNION OF TEACHERS,1160210126,Pre-Primary and Primary,Urban,Regular,No,No Source of Safe Water,First Aid Kit,No,No,No,2020/2021,141,161,302
GOMBE,BALANGA,GHARU PRIMARY SCHOOL,9.4559,11.4329,KINDIYO,GHARU,1160210127,Pre-Primary and Primary,Rural,Regular,No,No Source of Safe Water,First Aid Kit,Yes,No,Yes,2020/2021,34,58,92
GOMBE,BALANGA,LOTAKULAN  PRIMARY SCHOOL,9.61983,11.432617,DADIYA HILL,LOTAKULAN  DADIYA,1160210128,Pre-Primary and Primary,Rural,Regular,No,No Source of Safe Water,No Health facility,Yes,No,No,2020/2021,172,133,305
GOMBE,BALANGA,WURO LEDDE NORMADIC PRIMARY SCHOOL,,,KINDIYO,ALONG CHAM ROAD YOLA,1160210129,Pre-Primary and Primary,Rural,Nomadic (Migrants),No,No Source of Safe Water,First Aid Kit,No,No,No,2020/2021,149,163,312
GOMBE,BALANGA,BWANGAL PRIMARY SCHOOL,9044.0,11.41,KINDOYO,ALONG POTOKI ROAD,1160210130,Pre-Primary and Primary,Rural,Regular,No,No Source of Safe Water,No Health facility,No,No,No,2020/2021,162,186,348
GOMBE,BALANGA,BWITELE,9.90525,11.590661,TALASSE DONG REME,BWITELE,1160210132,Pre-Primary and Primary,Rural,Regular,No,No Source of Safe Water,No Health facility,,No,No,2020/2021,97,106,203
GOMBE,BALANGA,JALINGO P.S.,,,TALASSE,ALONG TEACHERS HOUSE TALASSE,1160210133,Pre-Primary and Primary,Urban,Regular,No,No Source of Safe Water,First Aid Kit,No,No,No,2020/2021,55,58,113
GOMBE,BALANGA,KWASI II PRIMARY SCHOOL,,,KINDIYO,ADJACENT TO LCCN CHURCH KWASI,1160210134,Pre-Primary and Primary,Rural,Regular,No,No Source of Safe Water,No Health facility,Yes,No,Yes,2020/2021,53,91,144
GOMBE,BALANGA,KWANGU NOMADIC PRIMARY SCHOOL,9.4738,11.3635,DEGRI KULANI SIKKAM,KWANGU,1160210135,Pre-Primary and Primary,Rural,Nomadic (Migrants),No,No Source of Safe Water,First Aid Kit,No,No,No,2020/2021,77,143,220
GOMBE,BALANGA,DWIBICHINGI,,,TALASSE,REFELE ROAD,1160210158,Pre-Primary and Primary,Rural,Regular,No,No Source of Safe Water,No Health facility,Yes,No,No,2020/2021,106,116,222
GOMBE,BALANGA,DAURAWA     PRIMARY SCHOOL,10075880.0,11753994.0,SWA,NAR M AIANGUWA MANSIR RESIDENCE,1160210160,Pre-Primary and Primary,Rural,Regular,No,No Source of Safe Water,No Health facility,Yes,No,No,2020/2021,104,120,224
GOMBE,BALANGA,SHUGO  PRIMARY SCHOOL,9.615763,11.42127,DADIYA,,1160210161,Pre-Primary and Primary,Rural,Regular,No,No Source of Safe Water,No Health facility,,No,No,2020/2021,96,90,186
GOMBE,BALANGA,DEHERU   PRIMARY SCHOOL,9.999408,11.639013,SWA,DASHERU,1160210162,Pre-Primary and Primary,Rural,Regular,No,No Source of Safe Water,No Health facility,Yes,No,No,2020/2021,85,106,191
GOMBE,BALANGA,GILENGI,,,MONA,NEAR BAPTIST CHURCH GILENGI,1160210163,Pre-Primary and Primary,Rural,Regular,No,No Source of Safe Water,First Aid Kit,Yes,No,No,2020/2021,104,119,223
GOMBE,BALANGA,BAWUNG NOMADIC,9.798253,11.649628,DAIDIYA BALANGA,TAMERINE TREE BANGUNJI ROAD,1160210164,Pre-Primary and Primary,Rural,Nomadic (Migrants),No,No Source of Safe Water,No Health facility,No,No,No,2020/2021,82,111,193
GOMBE,BALANGA,DALI FILA,9.84742,11.441068,DADIYA   HILL,DALIFILA VILLAGE,1160210165,Pre-Primary and Primary,Rural,Regular,No,No Source of Safe Water,No Health facility,Yes,No,No,2020/2021,144,116,260
GOMBE,BALANGA,GONONGU,9.965462,11.639675,GELENGU BALANGA,,1160210166,Pre-Primary and Primary,Rural,Regular,No,No Source of Safe Water,First Aid Kit,Yes,No,No,2020/2021,61,60,121
GOMBE,BALANGA,KAFIN MAKWI,9.62546,11.46931,DADIYA HILL,KAFIN MAKWI,1160210167,Pre-Primary and Primary,Rural,Regular,No,No Source of Safe Water,No Health facility,Yes,No,Yes,2020/2021,109,94,203
GOMBE,BALANGA,KUTARE  PRIMARY SCHOOL,9.10829011,11.829784,MONA,YOLA ROAD,1160210168,Pre-Primary and Primary,Rural,Regular,Yes,No Source of Safe Water,First Aid Kit,No,No,No,2020/2021,301,218,519
GOMBE,BALANGA,JANGAI,,,SWA,,1160210169,Pre-Primary and Primary,Rural,Regular,No,No Source of Safe Water,No Health facility,Yes,No,No,2020/2021,101,97,198
GOMBE,BALANGA,JUNG PRIMARY SCHOOL,,,MONA,KWARGE  JUNG YOLA ROAD,1160210172,Pre-Primary and Primary,Rural,Regular,No,Other,No Health facility,No,No,No,2020/2021,142,140,282
GOMBE,BALANGA,KUWONDI BALANGA PRIMARY SCHOOL,9.96036,11.62836,GELENGU B ALANGA,NEAR ECWA CHURCH KUWONDI ALONG B ALANGA GARU ROAD,1160210175,Pre-Primary and Primary,Rural,Regular,No,No Source of Safe Water,No Health facility,Yes,No,No,2020/2021,73,59,132
GOMBE,BALANGA,EARLY CHILD EDUCATION DEVELOPMENT P;RIMARY SCHOOL,9.9,11.67,TALASSE DONG REME,BODESHAU TALASSE,1160210176,Pre-Primary and Primary,Urban,Regular,No,No Source of Safe Water,No Health facility,No,No,No,2020/2021,124,74,198
GOMBE,BALANGA,CENTRAL MODEL PRIMARY SCHOOL TALASSE,9.581975,11.412001,TALASSE DONG REME,"ALONG GSS TALASSE, NEAR MATERNITY CLINIC",1160210177,Pre-Primary and Primary,Urban,Regular,No,Borehole,First Aid Kit,No,Yes,No,2020/2021,289,269,558
GOMBE,BALANGA,KWAKWARI PRIMARY SCHOOL,9.5,11.69,TALASSE DONG REME,DONG,1160210178,Pre-Primary and Primary,Rural,Regular,No,Borehole,First Aid Kit,Yes,No,No,2020/2021,257,267,524
GOMBE,BALANGA,LAWUGULI PRIMARY SCHOOL,,,DEGRI SIKKAM KULANI,NEAR LAUGULAI HOSPITAL,1160210180,Pre-Primary and Primary,Rural,Regular,No,No Source of Safe Water,First Aid Kit,Yes,No,Yes,2020/2021,165,191,356
GOMBE,BALANGA,BANJIM PRIMARY SCHOOL SWA,59.8498,11.385969,SWA,SWA,1160210183,Pre-Primary and Primary,Rural,Regular,No,,,,No,No,2020/2021,71,78,149
GOMBE,BALANGA,DINGO PRIMARY SCHOOL,9.972885,11.6509,SWA,DINGO,1160210184,Pre-Primary and Primary,Rural,Regular,No,No Source of Safe Water,First Aid Kit,No,No,No,2020/2021,60,57,117
GOMBE,BALANGA,WALA NUNGU,9.85246,11.58323,SWA,WALA NUNGU AREA,1160210185,Pre-Primary and Primary,Rural,Regular,No,No Source of Safe Water,No Health facility,Yes,Yes,Yes,2020/2021,103,89,192
GOMBE,BALANGA,SABON LAYI PRIMARY SCHOOL BAMBAM,9.727721,11.654941,BAMBAM,OPPOSITE FILIN IDI BAMBAM,1160210186,Pre-Primary and Primary,Rural,Regular,No,No Source of Safe Water,No Health facility,Yes,No,No,2020/2021,175,208,383
GOMBE,BALANGA,AHMADU PRIMARY BALANGA LGEA TALASSE,9.848374,11.679245,DEGRI SIKKAM KULANI,KELMI,1160210187,Pre-Primary and Primary,Rural,Regular,No,No Source of Safe Water,No Health facility,Yes,No,No,2020/2021,47,79,126
GOMBE,BALANGA,SWIR PRIMARY SCHOOL,,,MONA,SWIR MONA,1160210188,Pre-Primary and Primary,Rural,Regular,No,No Source of Safe Water,No Health facility,No,No,No,2020/2021,124,96,220
GOMBE,BALANGA,BEKWA PRIMARY SCHOOL,,,MOWA,ALONG GOMBE YOLA ROAD,1160210189,Pre-Primary and Primary,Rural,Regular,No,No Source of Safe Water,No Health facility,Yes,No,No,2020/2021,100,83,183
GOMBE,BALANGA,KONOKELMI PRIMARY SCHOOL,95546.0,11475.0,BANGU,,1160210190,Pre-Primary and Primary,Rural,Regular,No,No Source of Safe Water,First Aid Kit,Yes,No,No,2020/2021,111,133,244
GOMBE,BALANGA,DAPRE PRIMARY SCHOOL GELENGU,,,GELENGU,JSALINGO GELENGU,1160210191,Pre-Primary and Primary,Rural,Regular,No,No Source of Safe Water,No Health facility,Yes,No,No,2020/2021,63,49,112
GOMBE,BALANGA,BEYI PRIMARY SCHOOL BALANGA,9.879,11.796,DEGRI SIKKAM KULANI,NEAR JUMMA MOSQUER,1160210192,Pre-Primary and Primary,Urban,Regular,No,No Source of Safe Water,First Aid Kit,No,No,Yes,2020/2021,128,137,265
GOMBE,BALANGA,JAKURE PRIMARY SCHOOL,9.441235,11.79559,NWUWAR JESSU,JAKURE,1160210193,Pre-Primary and Primary,Rural,Regular,No,No Source of Safe Water,No Health facility,No,No,No,2020/2021,45,38,83
GOMBE,BALANGA,KWANAN TELA PRIMARY SCHOOL,10963486.0,11803428.0,MONA,ALONG GOMBE YOLA ROAD,1160210194,Pre-Primary and Primary,Rural,Regular,No,No Source of Safe Water,First Aid Kit,No,No,No,2020/2021,64,91,155
GOMBE,BALANGA,GINERE PRIMARY SCHOOL,9.86753,11.643216,DEGRI SIKKAM KULANI,GINERE TOWN,1160210195,Pre-Primary and Primary,Rural,Regular,No,No Source of Safe Water,No Health facility,No,No,No,2020/2021,120,151,271
GOMBE,BALANGA,JUNGE BOYOU PRIMARY SCHOOL,9.932702,11.668075,TALASSE DONG REME,ECWA  CHURCH JUNGE BOYOU,1160210196,Pre-Primary and Primary,Rural,Regular,No,No Source of Safe Water,No Health facility,Yes,No,No,2020/2021,52,58,110
GOMBE,BALANGA,MAYA PUKARE PRIMARY SCHOOL,9.8555,11.796,DEGRI,MAYA PUKARE,1160210197,Pre-Primary and Primary,Urban,Regular,No,No Source of Safe Water,No Health facility,No,No,Yes,2020/2021,68,76,144
GOMBE,BALANGA,SABARA PRIMARY SCHOOL,9.69522,11.476646,DADIYA HILL,SABARA DADIYA,1160210198,Pre-Primary and Primary,Rural,Regular,No,Borehole,No Health facility,Yes,Yes,No,2020/2021,67,83,150
GOMBE,BALANGA,CHU PRIMARY SCHOOL BALANGA,9.7823,11.789632,DEGRI KULANI SIKAM,CHU,1160210199,Pre-Primary and Primary,Rural,Regular,No,No Source of Safe Water,No Health facility,Yes,No,Yes,2020/2021,136,137,273
GOMBE,BALANGA,KAKUR PRIMARY SCHOOL BAMBAM,9.75252,11.64943,BAMBAM,ALONG YOLA ROAD,1160210200,Pre-Primary and Primary,Rural,Regular,No,No Source of Safe Water,First Aid Kit,Yes,No,No,2020/2021,68,68,136
GOMBE,BALANGA,TALKUMA PRIMARY SCHOOL,9.8421,11.7654,DEGRI,TALKUMA,1160210201,Pre-Primary and Primary,Rural,Regular,No,No Source of Safe Water,First Aid Kit,Yes,No,No,2020/2021,115,139,254
GOMBE,BALANGA,KAN BURAI PRIMARY SCHOOL,9.846,11.768,NYUWAR JESSU,BWALU NYUWAR,1160210202,Pre-Primary and Primary,Rural,Regular,No,No Source of Safe Water,No Health facility,No,No,No,2020/2021,46,59,105
GOMBE,BALANGA,DALA WAJA II PRIMARY SCHOOL,9.93356,11.714427,DALA WAJA BANGU LAFIYA,NEAR DALA WAJA ECWA CHURCH,1160210203,Pre-Primary and Primary,Rural,Regular,No,No Source of Safe Water,No Health facility,Yes,Yes,No,2020/2021,111,115,226
GOMBE,BALANGA,LABUN II PRIMARY SCHOOL,,,KINOIYO,NEAR ECWA CHURCH LABUN,1160210204,Pre-Primary and Primary,Rural,Regular,No,No Source of Safe Water,No Health facility,,No,No,2020/2021,108,102,210
GOMBE,BALANGA,GJSS DUNGAJE,9.727612,11.649909,MONA,ALONG TARI KWAMTE ROAD MONA,1160220002,Junior Secondary,Rural,Regular,No,No Source of Safe Water,No Health facility,No,No,No,2020/2021,71,52,123
GOMBE,BALANGA,GJSS REFELE,10.026042,11.733202,SWA REFELE WALA,REFELE,1160220003,Junior Secondary,Rural,Regular,Yes,No Source of Safe Water,No Health facility,No,Yes,No,2020/2021,83,59,142
GOMBE,BALANGA,GJSS DEGRI,9.98723,11.872345,DEGRI SIKKAM KULANI,NEAR DEGRI PRIMARY SCHOOL,1160220004,Junior Secondary,Rural,Regular,Yes,No Source of Safe Water,No Health facility,No,Yes,Yes,2020/2021,63,42,105
GOMBE,BALANGA,GJSS DALA WAJA,11.719577,,BANGU DALA WAJA,NEAR ECWA CHURCH DALA-WAJA,1160220005,Junior Secondary,Rural,Regular,Yes,No Source of Safe Water,No Health facility,No,No,Yes,2020/2021,144,102,246
GOMBE,BALANGA,GJSS LOJAH,,,MONA,,1160220006,Junior Secondary,Rural,Regular,No,No Source of Safe Water,First Aid Kit,,No,No,2020/2021,68,86,154
GOMBE,BALANGA,GJSS BALANGA,9.945725,11.59827,GELENGU/BALANGA,NEAR ECWA CHURCH BALANGA GARU,1160220007,Junior Secondary,Rural,Regular,Yes,Borehole,First Aid Kit,No,Yes,Yes,2020/2021,62,48,110
GOMBE,BALANGA,GJSS YELWA,9.67714,11.4762,DADIYA HILL,"YELWA DADIYA NEAR YELWA RIVER, YELWA",1160220008,Junior Secondary,Rural,Regular,No,No Source of Safe Water,First Aid Kit,No,No,No,2020/2021,102,105,207
GOMBE,BALANGA,GJSS PUTOKI,9.841847,11.685412,DEGRI/SIKKAM/KULANI,"NEAR CENTRAL PRIMARY SCHOOL, PUTOKI",1160220009,Junior Secondary,Rural,Regular,No,Borehole,First Aid Kit,No,Yes,Yes,2020/2021,93,60,153
GOMBE,BALANGA,GJSS NYUWAR,9.465391,11.451496,NYUWAR JESSU,,1160220010,Junior Secondary,Rural,Regular,Yes,No Source of Safe Water,First Aid Kit,No,Yes,Yes,2020/2021,138,210,348
GOMBE,BALANGA,GJSS BALAMSANE,1.003111,11.564185,GELENGU BALANSANE,NEAR MATERNITY CLINIC BALANSANE,1160220011,Junior Secondary,Rural,Regular,No,Borehole,First Aid Kit,No,Yes,No,2020/2021,47,33,80
GOMBE,BALANGA,GJSS LOFIYO,9.63576,11.39046,DAIDIYA,LOFIYO NO I,1160220012,Junior Secondary,Rural,Regular,No,Borehole,First Aid Kit,No,Yes,No,2020/2021,202,217,419
GOMBE,BALANGA,GJSS DONG,9.9565751,11.132604,TALASSE DONG REME,LAWIYOU,1160220013,Junior Secondary,Rural,Regular,No,No Source of Safe Water,First Aid Kit,No,Yes,No,2020/2021,172,126,298
GOMBE,BALANGA,GJSS GURMA,,,DEGRI KULANI SIKKAM,OPPOSITE ECWA CHURCH GURMA,1160220014,Junior Secondary,Rural,Regular,No,No Source of Safe Water,First Aid Kit,No,No,No,2020/2021,142,105,247
GOMBE,BALANGA,GJSS SIKKAM,9.823,11.432,DEGRI KUILANI SIKKAM,OPPOSITE CENTRAL PRIMARY SCHOOL SIKKAM,1160220015,Junior Secondary,Rural,Regular,No,No Source of Safe Water,First Aid Kit,No,No,Yes,2020/2021,92,113,205
GOMBE,BALANGA,GJSS DELEH,,,NYUWAR JESSU,ALONG JONKO ROAD,1160220016,Junior Secondary,Rural,Regular,No,Other,First Aid Kit,Yes,Yes,No,2020/2021,119,104,223
GOMBE,BALANGA,GOVERNMENTJUNIOR SECONDARY SCHOOL BANGU,9.5745,11.451,BANGU,"ALONG LAFIYA ROAD, BANGU",1160220017,Junior Secondary,Rural,Regular,No,No Source of Safe Water,First Aid Kit,No,No,No,2020/2021,97,84,181
GOMBE,BALANGA,GJSS LOBWARE,9.62619,11.424501,DADIYA HILL,LODIP LOBWARE DADIYA HILL,1160220018,Junior Secondary,Rural,Regular,No,No Source of Safe Water,First Aid Kit,No,Yes,No,2020/2021,117,101,218
GOMBE,BALANGA,GJSS REME (GDSS),9.908599,11.655791,TALSSE DONG REME,,1160220019,Junior Secondary,Rural,Regular,Yes,Borehole,First Aid Kit,No,Yes,Yes,2020/2021,94,73,167
GOMBE,BALANGA,GJSS KWARGE,9.756809,11.068549,MONA,ALONG YOLA ROAD-MONA WARD CHAM,1160220020,Junior Secondary,Rural,Regular,Yes,No Source of Safe Water,First Aid Kit,No,Yes,No,2020/2021,143,99,242
GOMBE,BALANGA,GJSS KAFIN BAWA (GDSS),9.62264,11.46119,DADIYA,KAFIN BAWA DADIYA HILL,1160220021,Junior Secondary,Rural,Regular,Yes,Other,First Aid Kit,No,Yes,No,2020/2021,84,79,163
GOMBE,BALANGA,GJSS SWA (GDSS),9584875.0,11393804.0,SWA,SWA NEAR MATERNITY CLINIC SWA,1160220022,Junior Secondary,Rural,Regular,No,Borehole,First Aid Kit,No,Yes,No,2020/2021,229,188,417
GOMBE,BALANGA,GJSS KULANI,9.497,11.3752,DEGRI KULANI SIKKAM,,1160220023,Junior Secondary,Rural,Regular,No,No Source of Safe Water,First Aid Kit,No,Yes,No,2020/2021,149,155,304
GOMBE,BALANGA,GJSS CHAM CENTRAL,9.422581,11.423531,KINDIYO,ADJACENT TO POLICE STATION CHAM  ALONG GOMBE YOLA ROAD,1160220024,Junior Secondary,Rural,Regular,No,No Source of Safe Water,First Aid Kit,Yes,Yes,No,2020/2021,146,149,295
GOMBE,BALANGA,GJSS LAFIYA WALA LUNGUDA (GDSS),,,BANGU/DALAWAJA/WALALUNGUDA,ALONG LAFIYA WALALUNGUDA-GUYUK ROAD,1160220025,Junior Secondary,Rural,Regular,No,No Source of Safe Water,No Health facility,No,No,No,2020/2021,80,73,153
GOMBE,BALANGA,GJSS GELENGU,,,GELENGU BALANGA,NEAR ECWA HEALTH CLINIC,1160220026,Junior Secondary,Rural,Regular,No,Borehole,First Aid Kit,No,Yes,No,2020/2021,257,239,496
GOMBE,BALANGA,GJSS BORMI,9.976378,11.680889,TALASSE DONG REME,BEHIND TIYO BOREHOLE TALASSE,1160220027,Junior Secondary,Urban,Regular,Yes,No Source of Safe Water,First Aid Kit,No,No,No,2020/2021,156,141,297
GOMBE,BALANGA,GJSS BAMBAM,9690.0,11539.0,BAMBAM,ALHAJI ABDULKADIR ABUBAKAR BEHIND  FOLO DADIYA PALACE,1160220028,Junior Secondary,Urban,Regular,No,Borehole,First Aid Kit,No,Yes,No,2020/2021,141,188,329
GOMBE,BALANGA,GJSS MAITUNKU,9.602752,11.519125,MAITUNKU DADIYA,MAITUNKU,1160220029,Junior Secondary,Rural,Regular,Yes,No Source of Safe Water,No Health facility,Yes,Yes,No,2020/2021,65,69,134
GOMBE,BALANGA,GJSS GYELENGITU,9.72985,11.7246,NYUWAR JESSU,NEAR  DAKASHI'S PALACE DELEH,1160220030,Junior Secondary,Rural,Regular,No,No Source of Safe Water,First Aid Kit,No,Yes,No,2020/2021,71,92,163
GOMBE,BALANGA,GJSS LAJANGARA,10.06,11.61,LAJANGARA,ALONG BSLANGA TALASSE ROAD,1160220031,Junior Secondary,Rural,Regular,No,Borehole,First Aid Kit,No,No,Yes,2020/2021,82,46,128
GOMBE,BALANGA,GJSS BULER,10.238978,11.328968,MONA,ALONG YOLA ROAD NEAR ECWA CHURCH BULER,1160220032,Junior Secondary,Rural,Regular,Yes,Borehole,No Health facility,No,Yes,Yes,2020/2021,98,77,175
GOMBE,BALANGA,GJSS JESSU (GDSS),9.44233,11.46737,JESSU NYUWAR,,1160220033,Junior Secondary,Rural,Regular,No,No Source of Safe Water,First Aid Kit,Yes,No,No,2020/2021,80,84,164
GOMBE,BALANGA,GJSS NYANG KULANI,9.47,11.36,DEGRI KULANI SIKKAM,NEAR JUMMAT MOSQUE YANG,1160220034,Junior Secondary,Rural,Regular,No,No Source of Safe Water,No Health facility,No,No,No,2020/2021,35,31,66
GOMBE,BALANGA,GJSS KORE,9.773,11.669,DEGRI KULANI SIKKAM,KULANI ROAD,1160220035,Junior Secondary,Rural,Regular,Yes,No Source of Safe Water,No Health facility,No,Yes,No,2020/2021,114,123,237
GOMBE,BALANGA,GJSS WALA WAJA,9990777.0,116735557.0,SWA,WALA WAJA ALONG GAMADADI ROAD,1160220036,Junior Secondary,Rural,Regular,Yes,No Source of Safe Water,First Aid Kit,No,Yes,Yes,2020/2021,68,57,125
GOMBE,BALANGA,GJSS KUTARE,10.3,11.78,MONA,KUTARE ALONG GOMBE - YOLA ROAD,1160220037,Junior Secondary,Rural,Regular,Yes,No Source of Safe Water,No Health facility,No,Yes,No,2020/2021,65,51,116
GOMBE,BALANGA,GJSS FITILAI,10876432.0,11802506.0,MONA,ALONG YOLA ROAD   BEHIND FITILAI MARKET,1160220038,Junior Secondary,Rural,Regular,No,No Source of Safe Water,First Aid Kit,Yes,No,No,2020/2021,51,51,102
GOMBE,BALANGA,GJSS SABARA,9.665272,11.416255,DAIYA HILL,NEAR MAI UNGUWAN SABARA PALACE SABARA,1160220039,Junior Secondary,Rural,Regular,Yes,Borehole,No Health facility,Yes,Yes,Yes,2020/2021,44,39,83
GOMBE,BALANGA,GJSS DADIYA,9.697045,11.516769,DADIYA HILL,LOKULAKULI DADIYA HILL,1160220040,Junior Secondary,Rural,Regular,Yes,No Source of Safe Water,First Aid Kit,No,Yes,No,2020/2021,79,66,145
GOMBE,BALANGA,GJSS MONA,10.238978,11.328968,MONA,"ADJACENT ECWA CHURCH, MONA NO.1 JUBLANG",1160220041,Junior Secondary,Rural,Regular,Yes,Borehole,First Aid Kit,No,Yes,No,2020/2021,103,83,186
GOMBE,BALANGA,GOVERNMENT JUNIOR SECONDARY SCHOOL TIKSIR,9433.38304,114430.37596,KINDIYO,,1160220042,Junior Secondary,Rural,Regular,Yes,No Source of Safe Water,No Health facility,Yes,Yes,No,2020/2021,69,60,129
GOMBE,BALANGA,GJSS YOLDE,9.43226668,11.45202849,KINDIYO,ALONG YOLA ROAD,1160220043,Junior Secondary,Rural,Regular,Yes,No Source of Safe Water,First Aid Kit,Yes,Yes,No,2020/2021,44,66,110
GOMBE,BALANGA,CENTRAL MODEL JUNIOR SECONDARY SCHOOL TALASSE,9582503.0,11412046.0,TALSSE DONG REME,NEAR MATERNITY CLINIC TALASSE,1160220044,Junior Secondary,Urban,Regular,No,Borehole,First Aid Kit,No,Yes,Yes,2020/2021,318,214,532
GOMBE,BALANGA,GJSS LWEBE CHAM,9.42,11.438,KINDIYO,"NEAR GSS TALASSE, BEHIND MAIN MARKET, CHAM",1160220045,Junior Secondary,Rural,Regular,No,Other,First Aid Kit,No,Yes,No,2020/2021,59,80,139
GOMBE,BALANGA,DONGOLE JUNIOR SECONDARY SCHOOL,9.923175,11.656833,TALASSE DONG REME,DONGOLOE,1160220046,Junior Secondary,Rural,Regular,No,Borehole,First Aid Kit,No,Yes,No,2020/2021,81,76,157
GOMBE,BALANGA,GOVERNMENT JUNIOR SECONDARY SCHOOL DORAWA,,,DADIYA HILL,YEMFIYO STREET DADIYA,1160220047,Junior Secondary,Rural,Regular,No,Borehole,First Aid Kit,No,Yes,Yes,2020/2021,71,63,134
GOMBE,BALANGA,GJSS KUMTUR,,,KINDIYO,NEAR KUMTUR PRIMARY SCHOOL,1160220048,Junior Secondary,Rural,Regular,No,No Source of Safe Water,No Health facility,No,No,Yes,2020/2021,75,71,146
GOMBE,BALANGA,GJSS GWENTI,,,KINDIYO,NEAR GWENTI CENTRAL MOSQUE,1160220049,Junior Secondary,Rural,Regular,Yes,No Source of Safe Water,First Aid Kit,No,Yes,No,2020/2021,85,52,137
GOMBE,BALANGA,GJSS WALNYU,,,DEGRI,JONE WALNYU,1160220050,Junior Secondary,Rural,Regular,No,No Source of Safe Water,First Aid Kit,Yes,No,No,2020/2021,68,53,121
GOMBE,BALANGA,GJSS DAKAWAL,94415.0,114326.0,KINDIYO,NEAR UPPER BENUE RIVER BASIN CHAM,1160220051,Junior Secondary,Rural,Regular,Yes,No Source of Safe Water,First Aid Kit,No,Yes,Yes,2020/2021,56,33,89
GOMBE,BALANGA,GDSS BAMBAM,9.69,11.539,BAMBAM,ABUBAKAR STREET BAMABAM,1160230001,Senior Secondary,Rural,Regular,No,Borehole,First Aid Kit,No,Yes,No,2020/2021,183,150,333
GOMBE,BALANGA,GDSS BANGU,,,B ANGU DALAWAJA DALA,ALONG LAFIYA ROAD BANGU,1160230002,Senior Secondary,Rural,Regular,No,No Source of Safe Water,First Aid Kit,No,No,No,2020/2021,45,19,64
GOMBE,BALANGA,GDSS CHAM,9.4252,11.41135,KINDIYO,ALONG GOMBE YOLA ROAD CHAM,1160230003,Senior Secondary,Rural,Regular,No,No Source of Safe Water,First Aid Kit,No,No,No,2020/2021,151,121,272
GOMBE,BALANGA,GDSS GELENGU,9.959963,11.625917,GELENGU B ALANGA,NEAR GOMBE STATE AGRICULTURAL DEVELOPMENT PROJECT STORES,1160230004,Senior Secondary,Rural,Regular,No,Borehole,First Aid Kit,Yes,No,No,2020/2021,167,165,332
GOMBE,BALANGA,GDSS KULANI,9.497,11.3752,DEGRI SIKKAM KULANI,ALONG KULANI ROAD,1160230005,Senior Secondary,Rural,Regular,No,No Source of Safe Water,First Aid Kit,No,Yes,No,2020/2021,136,61,197
GOMBE,BALANGA,GDSS PUTOKI,,,DEGRI SIKAM KULANI,,1160230006,Senior Secondary,Rural,Regular,No,Borehole,First Aid Kit,No,Yes,Yes,2020/2021,70,99,169
GOMBE,BALANGA,GDSS SWA,9584875.0,11393804.0,SWA,OPOSITE MATERNITY SWA,1160230007,Senior Secondary,Rural,Regular,Yes,Borehole,First Aid Kit,No,Yes,No,2020/2021,258,246,504
GOMBE,BALANGA,GDSS LAFIYA WALA LUNGUDA,9.959,11.812,BANGU LAFIYA WARD,ALONG LAFIYA WALALUN GUDA GYUK ROAD,1160230008,Senior Secondary,Rural,Regular,No,No Source of Safe Water,First Aid Kit,No,Yes,No,2020/2021,73,59,132
GOMBE,BALANGA,GCSS TALASSE,9.972402,11.672117,TALASSE DONG REME,TALSSE,1160230009,Senior Secondary,Urban,Regular,No,Borehole,First Aid Kit,No,No,No,2020/2021,161,122,283
GOMBE,BALANGA,GDSS JESSU,9.4463644,11.4674478,NYUWAR JESSU,SABON LAYI  JESSU,1160230010,Senior Secondary,Rural,Regular,No,No Source of Safe Water,First Aid Kit,No,No,No,2020/2021,102,108,210
GOMBE,BALANGA,GGSSS CHAM,,,KINDIYO,ALONG YOLA ROAD OPPOSITE FORMER GSS CHAM,1160230011,Senior Secondary,Rural,Regular,No,No Source of Safe Water,First Aid Kit,No,No,No,2020/2021,0,774,774
GOMBE,BALANGA,GDSS KAFIN BAWA,9.62264,11.46119,DADIYA,KAFIN BAWA,1160230012,Senior Secondary,Rural,Regular,Yes,Other,First Aid Kit,No,Yes,Yes,2020/2021,67,49,116
GOMBE,BALANGA,GDSS REME,9908599.0,11655791.0,TALASSE DONG REME,NEAR MATERNITY REME,1160230013,Senior Secondary,Rural,Regular,Yes,Borehole,First Aid Kit,No,Yes,No,2020/2021,149,68,217
GOMBE,BALANGA,GDSS DADIYA,9.697045,11.516769,DADIYA,LOKULAKULI,1160230014,Senior Secondary,Rural,Regular,Yes,No Source of Safe Water,No Health facility,Yes,Yes,No,2020/2021,50,69,119
GOMBE,BALANGA,GDSS KORE,9.773,11.668,DEGRI SIKKAM KULANI,KULANI ROAD,1160230016,Senior Secondary,Rural,Regular,Yes,No Source of Safe Water,First Aid Kit,No,Yes,No,2020/2021,54,58,112
GOMBE,BALANGA,GDSS BULER,,,MONA,ALONG YOLA ROAD NEAR FACM CHURCH BULER,1160230017,Senior Secondary,Rural,Regular,No,No Source of Safe Water,First Aid Kit,No,No,No,2020/2021,38,31,69
GOMBE,BALANGA,GDSS DONG,9.949778,11.692598,TALASSE DONG REME,NEAR LAWIYOU,1160230018,Senior Secondary,Rural,Regular,No,No Source of Safe Water,First Aid Kit,No,Yes,No,2020/2021,125,75,200
GOMBE,BALANGA,GDSS MONA,,,MONA,ALONG ECWA CHURCH MONA,1160230019,Senior Secondary,Rural,Regular,Yes,Other,No Health facility,No,Yes,No,2020/2021,59,51,110
GOMBE,BALANGA,SUCCESS ACADEMY MODEL SCHOOL,,,TALASSE,TALASSE,1160240002,Private Education,Rural,Regular,No,No Source of Safe Water,First Aid Kit,,No,,2020/2021,188,173,361
GOMBE,BALANGA,ECWA NURSERY AND PRIMARY SCHOOL SWA,9584642.0,11391436.0,SWA,ECWA CHURCH NUMBER ONE SWA,1160240003,Private Education,Rural,Regular,No,Well,First Aid Kit,,No,,2020/2021,39,34,73
GOMBE,BALANGA,PURPOSE ACADEMY NUR/PRI SCH.,,,KINDIYO,,1160240004,Private Education,Rural,Regular,No,No Source of Safe Water,First Aid Kit,,No,,2020/2021,226,200,426
GOMBE,BALANGA,"ECWA NURSERY AND PRY SCHOOL, JESSU",,,NYUWAR JESSU,NEAR HAKIMI'S PALACE JESSU,1160240005,Private Education,Rural,Regular,No,Borehole,First Aid Kit,,No,,2020/2021,54,57,111
GOMBE,BALANGA,ROYAL UNIQUE ACADEMY NUR/PRI SCH,,,KINDIYO,UNGUWAN HAUSAWA A HASSAN TOM  STREET,1160240006,Private Education,Rural,Regular,No,No Source of Safe Water,No Health facility,,No,,2020/2021,30,29,59
GOMBE,BALANGA,SABULU MEMORIAL NUR/PRI SCHOOL,,,KINDIYO,FULOTI KULO  MAIN STREET OPPOSITE PILOT SCIENCE CHAM,1160240007,Private Education,Rural,Regular,No,No Source of Safe Water,First Aid Kit,,No,,2020/2021,84,80,164
GOMBE,BALANGA,SHEIKH ISA TSANGAYA COMPREHENSIVE JSS TALASSE,9.58162,11.40492,TALSSE DONG REME,BEHIND TALASSE MAIN MARKET,1160240008,Private Education,Urban,Regular,Yes,Borehole,First Aid Kit,,Yes,,2020/2021,365,340,705
GOMBE,BALANGA,FOMWAN NURSERY PRIMARY SCHOOL,9.9802,11.66091,TALASSE,UNGUWAN KUDU TALASSE,1160240009,Private Education,Urban,Regular,No,No Source of Safe Water,First Aid Kit,,No,,2020/2021,170,142,312
GOMBE,BALANGA,ECWA NURSERY AND PRI SCHOOL GELENGU,9.963422,11.636288,GELENGU BALANGA,ECWA CHURCH NO 1 GELENGU,1160240010,Private Education,Rural,Regular,No,Borehole,First Aid Kit,,No,,2020/2021,69,68,137
GOMBE,BALANGA,ECWA MELA MEMORIAL ACADEMY TALASSE,,,TALASSE DONG REME,JURARE STREET TALASSE,1160240011,Private Education,Urban,Regular,Yes,Borehole,No Health facility,,Yes,,2020/2021,133,96,229
GOMBE,BALANGA,IHYAUS SUNNA NURSERY PRIMARY SCHOOL TALASSE,9.581382,11.405279,TALASSE DONG REME,TALASSE NASARAWO STREET,1160240012,Private Education,Rural,Islamiyya integrated,No,No Source of Safe Water,First Aid Kit,,No,,2020/2021,84,100,184
GOMBE,BALANGA,COMMUNITY COLLEGE FOR ARABIC AND ISLAMIC STUDIES,,,TALASSE DONG REME,TALASSE,1160240013,Private Education,Urban,Regular,No,Borehole,First Aid Kit,,No,,2020/2021,359,408,767
GOMBE,BALANGA,COMMUNITY COLLEGE FOR ARABIC AND ISLAMIC STUDIES,,,KULANI DEGRI SIKKAM,KULANI  CHANGI,1160240014,Private Education,Rural,Islamiyya integrated,Yes,No Source of Safe Water,First Aid Kit,,Yes,,2020/2021,34,29,63
GOMBE,BALANGA,COMMUNITY  DAY SECONDARY SCHOOL TIKSIR,9.43369,11.4431,KINDIYO,ALONG YOLA ROAD OPPOSITE FORMER GSS CHAM TIKISIR,1160240016,Private Education,Rural,Regular,Yes,No Source of Safe Water,First Aid Kit,,Yes,,2020/2021,126,102,228
GOMBE,BALANGA,MALJAUS SUNNA ISLAMIYYA PRI SCHOOL,,,TALASSE DONG REME,TALASSE OPPOSITE POLICE STATION TALESSE,1160240018,Private Education,Urban,Islamiyya integrated,No,No Source of Safe Water,First Aid Kit,,Yes,,2020/2021,64,94,158
GOMBE,BALANGA,NICHOLAS ACADEMY SEC SCHOOL,9955973.0,116380018.0,GELENGU BALANGA,ZANGO QUATERS GELENGU,1160240020,Private Education,Rural,Regular,No,Well,First Aid Kit,,No,,2020/2021,155,129,284
GOMBE,BALANGA,COMMUNITY HIGH SCHOOL NYUWAR,,,NYUWAR JESSU WARD,OPPOSITE NYUWAR HOSPITAL,1160240021,Private Education,Rural,Regular,No,No Source of Safe Water,First Aid Kit,,No,,2020/2021,80,50,130
GOMBE,BALANGA,ECWA NUS3ERY AND PRIMARY SCHOOL LOFIYO,9.698151,11.519529,DADIYA,BALU LOFIYO,1160240022,Private Education,Rural,Regular,No,Borehole,First Aid Kit,,No,,2020/2021,30,30,60
GOMBE,BALANGA,MADARASATUT TARBIYATUL ISLAMIYYA,9.727548,11.649407,TALIYAYI,ANGUWAN TALIYAYI BAM BAM,1160240024,Private Education,Rural,Regular,No,No Source of Safe Water,First Aid Kit,,No,,2020/2021,79,92,171
GOMBE,BALANGA,KWALWI MODEL ACADEMY  SCHOOL,,,GADANMAYO,GADAMAYO BAMBAM POLICE DIVISION,1160240025,Private Education,Rural,Regular,No,No Source of Safe Water,First Aid Kit,,No,,2020/2021,228,212,440
GOMBE,BALANGA,YERIMA MEMORIAL NURSERY  PRIMARY SCHOOL,,,SWA WALA REFELE,ADJASCENT ECWA CHURCH,1160240028,Private Education,Rural,Regular,No,Borehole,First Aid Kit,,No,,2020/2021,37,25,62
GOMBE,BALANGA,CHRIST APOSTOLIC CHURCH NURSERY SCHOOL,10.97,11.1089,MONA,FITILAI ALONG YOLA ROAD,1160240029,Private Education,Rural,Regular,Yes,Other,First Aid Kit,,No,,2020/2021,113,141,254
GOMBE,BALANGA,ARROWS OF JESSU SCIENCE N/P SCHOOL,904415.80292,114642.01536,NYUWAR JESSU,SABON LAYI JESSU,1160240032,Private Education,Rural,Regular,No,Other,First Aid Kit,,No,,2020/2021,71,55,126
GOMBE,BALANGA,MANARA NURSERY AND PRIMARY SCHOOL,9581769.0,11402347.0,TALASSE,"NEAR UNION BANK, TALASSE",1160240035,Private Education,Urban,Islamiyya integrated,No,No Source of Safe Water,First Aid Kit,,No,,2020/2021,79,65,144
GOMBE,BALANGA,ECWA NURSERY AND PRIMARY SCHOOL CHAM LWEBE,11.43299,,CHAM,LWEBE,1160240040,Private Education,Rural,Regular,No,Borehole,Health Clinic,,No,,2020/2021,179,175,354
GOMBE,BALANGA,COMMUNITY INTEGRATED SPECIAL EDUCATION CENTRE,,,TALASSE DONG REME,DONG,1160240041,Private Education,Rural,Regular,No,No Source of Safe Water,No Health facility,,No,,2020/2021,130,127,257
GOMBE,BALANGA,FIRST AFRICAN CHURCH FUMUR,,,MONA,MONA FUMUR,1160240042,Private Education,Rural,Regular,No,Other,First Aid Kit,,No,,2020/2021,55,60,115
GOMBE,BALANGA,BABAJIKA NURSERY SCHOOL,9.72754,11.65481,MONA,MONA JUBLANG,1160240043,Private Education,Rural,Regular,No,No Source of Safe Water,First Aid Kit,,No,,2020/2021,5,13,18
GOMBE,BALANGA,CNECOF INTERNATIONAL COLLEGE PUTOKI,9.836283,11.67336,"DEGRI, KULANI, SIKKAM",GELENGU PUTOKI,1160240044,Private Education,Rural,Regular,Yes,Pipe borne Water,First Aid Kit,,No,,2020/2021,88,46,134
GOMBE,BALANGA,EVER BRIGHT ACADEMY CHAM,,,KINDIYO,LWEBE,1160240045,Private Education,Rural,Regular,No,No Source of Safe Water,First Aid Kit,,No,,2020/2021,39,26,65
GOMBE,BALANGA,MONA HIGH SCHOOL,,,MONA,MONA TARI,1160240046,Private Education,Rural,Regular,No,Other,First Aid Kit,,Yes,,2020/2021,43,29,72
GOMBE,BALANGA,BEST FOUNDATION MODEL ACADEMY,9.953188,11.693128,TALASSE DONG REME,JANANG DONG,1160240047,Private Education,Rural,Regular,No,Borehole,First Aid Kit,,No,,2020/2021,53,43,96
GOMBE,BALANGA,PHIDELPHIA GOSPEL MOVEMENT NURSERY PRIMARY SCHOOL,,,KINDIYO,YOLDE,1160240048,Private Education,Rural,Regular,No,Borehole,First Aid Kit,,No,,2020/2021,74,73,147
GOMBE,BALANGA,PEACE ACADEMY NURSERY AND PRIMARY MONA CHAM,,,MONA,MONA CHAM,1160240049,Private Education,Rural,Regular,No,No Source of Safe Water,First Aid Kit,,No,,2020/2021,89,69,158
GOMBE,BALANGA,PEACE ACADEMY NURSERY AND PRIMARY CHAM,,,KINDIYO,FULOTI,1160240051,Private Education,Rural,Regular,No,Borehole,First Aid Kit,,No,,2020/2021,69,60,129
GOMBE,BALANGA,SUCCESS NURSERY SCHOOL GELENGU,9959118.0,11631257.0,GELENGU,OPPOSITE MATERNITY GELENGU,1160240052,Private Education,Rural,Regular,No,Borehole,First Aid Kit,,No,,2020/2021,124,102,226
GOMBE,BALANGA,SUCCESS NURSERY SCHOOL GELENGU,,,GELENGU,OPPOSITE MATERNITY GELENGU,1160240053,Private Education,Rural,Regular,No,Borehole,First Aid Kit,,No,,2020/2021,132,105,237
GOMBE,BALANGA,ASSAS NURSERY AND PRIMARY SCHOOL TALASSE,9.9782,11.6771,TALASSE,POLICE STATION STREET OPPOSITE PM RESIDENCE TALASSE,1160240054,Private Education,Urban,Regular,No,No Source of Safe Water,First Aid Kit,,No,,2020/2021,61,64,125
GOMBE,BALANGA,ECWA NURSERY AND PRIMARY SCHOOL KORE,9.778,11.665,DEGRI KULANI SIKKAM,ALONG KULANI ROAD,1160240055,Private Education,Rural,Regular,No,No Source of Safe Water,No Health facility,,No,,2020/2021,39,31,70
GOMBE,BALANGA,DONG INTEGRATED SPECIAL CENTRE,9.953188,11.693115,TALSSE DONG REME,NEAR JIBWIS DONG JUMA'AT MOSQUE,1160240056,Private Education,Rural,Regular,No,Borehole,First Aid Kit,,Yes,,2020/2021,291,286,577
GOMBE,BALANGA,MISBAHUS SUNNAH NURSERY AND PRIMARY SCHOOL,,,BAMBAM,ALONG GOMBE YOLA ROAD,1160240057,Private Education,Rural,Islamiyya integrated,No,No Source of Safe Water,First Aid Kit,,No,,2020/2021,105,89,194
GOMBE,BALANGA,GURMA ECWA NURSERY,,,DEGRI KULANI SIKKAM,NEAR PRIMARY SCHOOL GURMA,1160240058,Private Education,Rural,Regular,No,No Source of Safe Water,No Health facility,,No,,2020/2021,43,62,105
GOMBE,BALANGA,USMANIYYA NURSERY AND PRIMARY SCHOOL,9.714107,11.7085894,MONA,SOKOTO STREET KWARI VILLAGE,1160240059,Private Education,Rural,Regular,Yes,Other,First Aid Kit,,Yes,,2020/2021,46,37,83
GOMBE,BALANGA,ECWA NURSERY AND PRIMARY SCHOOL NYUWAR,9.464634,11.51748,NYUWAR JESSU,WANGI NYUWAR,1160240060,Private Education,Rural,Regular,No,No Source of Safe Water,First Aid Kit,,No,,2020/2021,74,85,159
GOMBE,BALANGA,ASASUL ISLAM NURSERY AND PRIMARY SCHOOL BAMBAM,9.700759,11.533268,BAMBAM,MASALLACIN ALHAJI YAHAYA BAMBAM,1160240061,Private Education,Rural,Islamiyya integrated,No,No Source of Safe Water,First Aid Kit,,Yes,,2020/2021,169,142,311
GOMBE,BALANGA,FUDIYA ACADEMY,9.969,11.68,TALASSE,JURARE TALASSE,1160240062,Private Education,Urban,Regular,Yes,No Source of Safe Water,First Aid Kit,,No,,2020/2021,3,9,12
GOMBE,BALANGA,ECWA NURSERY PRIMARY SCHOOL KWANCHENJAU,,,GELENGU,KEMBU,1160240063,Private Education,Rural,Regular,No,Borehole,First Aid Kit,,No,,2020/2021,54,45,99
GOMBE,BALANGA,GJSTC PUTOKI,9.836502,11.66801,DEGRI,ALONG KULANI ROAD GELENGU,1160250002,Science and Vocational,Rural,Science and Technology College,No,Borehole,First Aid Kit,No,Yes,No,2020/2021,73,62,135
GOMBE,BALANGA,GJSTC DADIYA,9.699192,11.523055,GADANMAYO,110 KM GOMBE YOLA ROAD,1160250003,Science and Vocational,Rural,Vocational Training Centre,No,No Source of Safe Water,No Health facility,No,Yes,No,2020/2021,162,72,234
