state,lga,name_school,latitude_north,longitude_east,ward,number_and_street,code_school,name_type_sector,name_type_location,name_type_school,shift_system_y_n,name_type_water_source,name_type_health_facility,any_classes_held_outside_y_n,shared_facilities_y_n,multi_grade_y_n,name_type_year,male_enrol,female_enrol,total erlrolment
GOMBE,DUKKU,ALAGARNO DOKORO,10.88166,10.842152,JAMARI WARD,"ALONG GUDU MUNU ROAD, ALAGARNO DOKORO",1160410001,Pre-Primary and Primary,Rural,Regular,No,No Source of Safe Water,No Health facility,No,No,Yes,2020/2021,125,75,200
GOMBE,DUKKU,ALAGARNO W/TALE,10.904012,10.666838,WURO TALE,"ALONG GOMBE ABBA ROAD, ALAGARNO W/TALE",1160410002,Pre-Primary and Primary,Rural,Regular,No,No Source of Safe Water,No Health facility,Yes,No,No,2020/2021,125,76,201
GOMBE,DUKKU,ALKALERI PRIMARY SCHOOL,11.025489,10.677004,LAFIYA TALE,ALKALERI,1160410003,Pre-Primary and Primary,Rural,Regular,No,No Source of Safe Water,No Health facility,Yes,Yes,No,2020/2021,101,50,151
GOMBE,DUKKU,ANCHAU PRIMARY SCHOOL,10.912361,10.642585,HASHIDU,ANCHAU VILLAGE,1160410004,Pre-Primary and Primary,Rural,Regular,No,No Source of Safe Water,No Health facility,Yes,No,No,2020/2021,75,86,161
GOMBE,DUKKU,ALANI PRIMARY SCHOOL,10.816008,11.765032,WAZIRI SOUTH,"ALONG KANO ROAD UNGUWAN BAUCHI  QUARTERS DUKKU, ALANI",1160410006,Pre-Primary and Primary,Urban,Regular,No,No Source of Safe Water,First Aid Kit,No,No,Yes,2020/2021,184,145,329
GOMBE,DUKKU,BAGADAZA PRIMARY SCHOOL,10.539442,10.885537,ZANGE,"BAGADAZA, ALONG GUSHO ROAD",1160410009,Pre-Primary and Primary,Rural,Regular,No,No Source of Safe Water,No Health facility,No,No,Yes,2020/2021,52,44,96
GOMBE,DUKKU,BALAJE,10.65,10.799,ZANGE,along jombo wajjuru road,1160410010,Pre-Primary and Primary,Rural,Regular,No,No Source of Safe Water,No Health facility,Yes,No,No,2020/2021,144,137,281
GOMBE,DUKKU,BALU PRIMARY SCHOOL,,,WAZIIRI NORTH DUKKU,"JAMARI STREET DUKKU, BALU",1160410011,Pre-Primary and Primary,Urban,Regular,No,No Source of Safe Water,First Aid Kit,No,No,No,2020/2021,177,160,337
GOMBE,DUKKU,BANIGAYI PRIMARY SCHOOL,10.762609,11.860283,ANGUWAR SARKI,ALONG EMIRS PALACE MUHAMMADU LAMIDO WAY NEAR CENTRAL MOSQUE,1160410012,Pre-Primary and Primary,Rural,Regular,No,No Source of Safe Water,No Health facility,Yes,No,Yes,2020/2021,50,52,102
GOMBE,DUKKU,BAWA ZEGO PRIMARY SCHOOL,10.413655,10.301074,GOMBE ABBA,"OPPOSITE BOHOLE ALONG ZEGO ROAD, BAWA ZEGO",1160410013,Pre-Primary and Primary,Rural,Regular,No,Borehole,No Health facility,No,Yes,Yes,2020/2021,168,133,301
GOMBE,DUKKU,BAKUNDI PRIMARY SCHOOL,1074156.0,1086592.0,WAZIRI SOUTH,"ALONG EMIRS PALACE JAURO SALE ROAD, OPPOSITE CENTRAL MOSQUE",1160410014,Pre-Primary and Primary,Rural,Regular,No,No Source of Safe Water,No Health facility,No,No,No,2020/2021,45,29,74
GOMBE,DUKKU,BALURU,10.81,10.78,WAZIRI SOUTH,ALONG BAJOGA ROAD BALURU,1160410015,Pre-Primary and Primary,Rural,Regular,No,No Source of Safe Water,No Health facility,No,No,No,2020/2021,71,79,150
GOMBE,DUKKU,BIRISHE PRIMARY SCHOOL,11.045,10.73,MALALA,"ALONG  MALALA BUKARI ROAD, BIRISHE",1160410016,Pre-Primary and Primary,Rural,Regular,No,No Source of Safe Water,No Health facility,Yes,No,No,2020/2021,100,36,136
GOMBE,DUKKU,BIRNI,10.73,10.81,WAZIRI SOUTH,BIRNI,1160410017,Pre-Primary and Primary,Rural,Regular,No,No Source of Safe Water,No Health facility,No,No,No,2020/2021,52,48,100
GOMBE,DUKKU,BOKKIRU PRIMARY SCHOOL,10.426768,10.913317,DUKKU,BOKKIRU ALONG ZANGE ROAD,1160410018,Pre-Primary and Primary,Rural,Regular,No,No Source of Safe Water,No Health facility,No,No,Yes,2020/2021,112,110,222
GOMBE,DUKKU,BOZONSHILWA PRIMARY SCHOOL,10.3815,10.56877,JAURO UMAR,ALONG GOMBE MAIN RONDBOZONSHILWA,1160410019,Pre-Primary and Primary,Rural,Regular,Yes,Borehole,First Aid Kit,No,Yes,No,2020/2021,279,190,469
GOMBE,DUKKU,BULBUL PRIMARY,10.778719,10.8,WAZIRI SOUTH,ALONG GOMBE ROAD BULBUL,1160410020,Pre-Primary and Primary,Rural,Regular,No,No Source of Safe Water,No Health facility,Yes,No,Yes,2020/2021,72,66,138
GOMBE,DUKKU,BURARI  PRIMARY SCHOOL,11.069,10.72,MALALA,HANYAN ZAUNE BURARI,1160410021,Pre-Primary and Primary,Rural,Regular,No,No Source of Safe Water,No Health facility,No,No,Yes,2020/2021,139,93,232
GOMBE,DUKKU,BURLEWOL    PRIMARY SCHOOL,10.801004,10.66452,GOMBE ABBA,BURLEWOL,1160410022,Pre-Primary and Primary,Rural,Regular,No,No Source of Safe Water,No Health facility,No,No,No,2020/2021,141,72,213
GOMBE,DUKKU,BUNDURU PRIMARY SCHOOL,10.428785,10.936645,ZANGE WARD,BUNDURU ALONG DOKARI PRIMARY SCHOOL,1160410023,Pre-Primary and Primary,Rural,Regular,No,No Source of Safe Water,No Health facility,No,No,Yes,2020/2021,45,64,109
GOMBE,DUKKU,BOMALA    PRIMARY SCHOOL,10.6,106.9,ZANGE,ALONG DAMBA DUKKU ROAD,1160410024,Pre-Primary and Primary,Rural,Regular,Yes,No Source of Safe Water,No Health facility,No,No,Yes,2020/2021,79,107,186
GOMBE,DUKKU,DAMBA DILE,,,WAZIRI SOUTH,DAMBA DILE  ALONG VILLAGE HEAD,1160410025,Pre-Primary and Primary,Rural,Regular,No,Other,No Health facility,Yes,No,Yes,2020/2021,95,66,161
GOMBE,DUKKU,DAMBA DUKKU,10.652099,10.713763,ZANGE WARD,DAMBA DULURU,1160410026,Pre-Primary and Primary,Rural,Regular,No,No Source of Safe Water,No Health facility,No,No,No,2020/2021,93,61,154
GOMBE,DUKKU,DAMINYA,10.385284,10.355058,KUNDE,"OPPOSITE MATERNITY CLINIC, DAMINYA",1160410027,Pre-Primary and Primary,Rural,Regular,No,No Source of Safe Water,No Health facility,No,No,No,2020/2021,114,54,168
GOMBE,DUKKU,DASHI PRIMARY SCHOOL,,,WAZIRI SOUTH,"ALONG KORIA ROAD, DASHI",1160410028,Pre-Primary and Primary,Rural,Regular,No,No Source of Safe Water,No Health facility,No,No,No,2020/2021,186,104,290
GOMBE,DUKKU,DIGE PRIMARY SCHOOL,11.05342,11.0795,JAMARI WARD,"ALONG EMIRS PALACE NAFADA ROAD, DIGE",1160410029,Pre-Primary and Primary,Rural,Regular,No,No Source of Safe Water,First Aid Kit,Yes,No,No,2020/2021,58,66,124
GOMBE,DUKKU,DILE,10.71,10.974,WAZIRI SOUTH,DILE,1160410030,Pre-Primary and Primary,Rural,Regular,No,No Source of Safe Water,No Health facility,No,No,Yes,2020/2021,85,80,165
GOMBE,DUKKU,DOKORO,11.002623,10.835367,JAMARI WARD,OPPOSITE MATERNITY,1160410031,Pre-Primary and Primary,Rural,Regular,No,No Source of Safe Water,No Health facility,No,No,Yes,2020/2021,141,118,259
GOMBE,DUKKU,DUGGIRI,11.02,10.78,MALALA,"ALONG MALALA ZAUNE, DUGGIRI",1160410032,Pre-Primary and Primary,Rural,Regular,No,No Source of Safe Water,No Health facility,No,No,No,2020/2021,203,145,348
GOMBE,DUKKU,DUGO,11.09586,10.04862,JAMARI WARD,MAIN ROAD NEAR EMIRS PALACE DUGO,1160410033,Pre-Primary and Primary,Rural,Regular,No,No Source of Safe Water,No Health facility,No,No,No,2020/2021,92,58,150
GOMBE,DUKKU,DUKKU WEST NURSERY AND PRIMARY,,,WAZIRI SOUTH,OPPOSITE LGA SECRETERIA DUKKU LGA,1160410034,Pre-Primary and Primary,Urban,Regular,No,Other,First Aid Kit,No,No,No,2020/2021,611,599,1210
GOMBE,DUKKU,DUKKU CENTRAL MODEL,,,DUKKU,DUKKU,1160410035,Pre-Primary and Primary,Urban,Regular,No,Other,First Aid Kit,No,Yes,No,2020/2021,670,574,1244
GOMBE,DUKKU,DUKKUYEL,11.073613,10.82628,ZAUNE,ALONG ZAURE MALAL DUKKUYEL,1160410036,Pre-Primary and Primary,Rural,Regular,No,No Source of Safe Water,No Health facility,No,No,No,2020/2021,269,172,441
GOMBE,DUKKU,FESHARE PRIMARY SCHOOL,10.555269,10.668067,ZANGE WARD,ALONG DU-DUGGEL -ALKALERI ROAD,1160410037,Pre-Primary and Primary,Rural,Regular,No,No Source of Safe Water,No Health facility,Yes,No,No,2020/2021,115,85,200
GOMBE,DUKKU,F.S.P.,10.825312,10.77556,WAZIRI SOUTH,UMAR AMINU STREET,1160410038,Pre-Primary and Primary,Urban,Regular,No,No Source of Safe Water,First Aid Kit,No,Yes,No,2020/2021,530,487,1017
GOMBE,DUKKU,GABCHIYARI PRIMARY SCHOOL,11.00937,10.760138,WURO TALE,"ALONG GOMBE ABBA NAFADA ROAD, GABCHIYARI",1160410041,Pre-Primary and Primary,Rural,Regular,No,No Source of Safe Water,No Health facility,No,No,No,2020/2021,132,115,247
GOMBE,DUKKU,GADUM PRIMARY SCHOOL,11.0841,11.00925,JAMARI WARD,ALONG EMIRS PALACE NEAR MINI MARKET GADUM,1160410042,Pre-Primary and Primary,Rural,Regular,No,No Source of Safe Water,First Aid Kit,Yes,No,No,2020/2021,83,60,143
GOMBE,DUKKU,GADUM BAWA PRIMARY SCHOOL,11.038226,10.766399,,ALONG MALALA ZAURE ROAD GADUM BAWA,1160410043,Pre-Primary and Primary,Rural,Regular,No,No Source of Safe Water,No Health facility,,No,Yes,2020/2021,118,58,176
GOMBE,DUKKU,GADUM MALA,11.04391,10.783982,MALALA,ALONG MALALA ZAURE ROAD,1160410044,Pre-Primary and Primary,Rural,Regular,No,No Source of Safe Water,No Health facility,Yes,No,No,2020/2021,143,122,265
GOMBE,DUKKU,GALE,10.8181,10.77081,GOMBE ABBA,"GOMBE ABBA ROAD, GALE",1160410045,Pre-Primary and Primary,Rural,Regular,No,Well,No Health facility,Yes,Yes,No,2020/2021,113,95,208
GOMBE,DUKKU,GALDO PRIMARY SCHOOL,10.824751,10.780052,WAZIRI NORTH,"ALONG BAJOGA ROAD, GALDO",1160410046,Pre-Primary and Primary,Rural,Regular,No,No Source of Safe Water,No Health facility,No,No,No,2020/2021,30,25,55
GOMBE,DUKKU,GAJI GALA PRIMAR SCHOOL,10.848377,10.636875,GOMBE ABBA,GAJI GALA,1160410047,Pre-Primary and Primary,Rural,Nomadic (Migrants),No,No Source of Safe Water,No Health facility,No,No,No,2020/2021,146,121,267
GOMBE,DUKKU,GANAWAJI PRIMARY SCHOOL,11.00223,10.209278,MALALA,GANAWAJI,1160410048,Pre-Primary and Primary,Rural,Regular,No,No Source of Safe Water,No Health facility,Yes,No,Yes,2020/2021,83,77,160
GOMBE,DUKKU,GARIN ALARAMMA PRIMARY,11.0742,10.890253,ZAUNE WARD,"ALONG MALALA ZAURE, GARIN ALARAMMA",1160410049,Pre-Primary and Primary,Rural,Regular,No,No Source of Safe Water,No Health facility,No,No,Yes,2020/2021,104,66,170
GOMBE,DUKKU,GARIN ATIKU PRIMARY SCHOOL,1108044.0,1091518.0,,"ALONG MALALA ZAUNE,GARIN ATIKU",1160410050,Pre-Primary and Primary,Rural,Regular,No,No Source of Safe Water,No Health facility,No,No,No,2020/2021,133,65,198
GOMBE,DUKKU,GARIN BULAMA PRIMARY SCHOOL,11.042671,1.016181,JAMARI WARD,ALONG EMIRS PALACE ROAD OPPOSTE MATERNITY CLINIC G/BULAMA,1160410051,Pre-Primary and Primary,Rural,Regular,No,No Source of Safe Water,No Health facility,No,Yes,No,2020/2021,89,61,150
GOMBE,DUKKU,GODE PRIMARY SCHOOL,10.88747476,10.921656,WAZIRI NORTH,ALONG BAJOGA ROAD GODE,1160410052,Pre-Primary and Primary,Rural,Regular,No,No Source of Safe Water,No Health facility,No,No,No,2020/2021,65,64,129
GOMBE,DUKKU,GOMBE ABBA PR. SCH.,10.0,,GOMBE ABBA,Gombe  ABBA,1160410053,Pre-Primary and Primary,Rural,Regular,No,No Source of Safe Water,First Aid Kit,No,No,No,2020/2021,403,394,797
GOMBE,DUKKU,G/DEGIZE,10.39,10.59,WAZIRI SOUTH,G/DEGIZE,1160410054,Pre-Primary and Primary,Rural,Regular,No,No Source of Safe Water,No Health facility,No,No,Yes,2020/2021,79,44,123
GOMBE,DUKKU,GONA PRIMARY SCHOOL,10.819483,10.777028,WAZIRI SOUTH,"GONA  QUARTERS, DUKKU",1160410055,Pre-Primary and Primary,Urban,Regular,No,No Source of Safe Water,First Aid Kit,No,Yes,No,2020/2021,308,245,553
GOMBE,DUKKU,GORORO,10.74378,10.3629418,KUNDE,OPPOSITE GORORO MOSQUE,1160410056,Pre-Primary and Primary,Rural,Regular,No,No Source of Safe Water,No Health facility,Yes,No,No,2020/2021,119,82,201
GOMBE,DUKKU,GUDE MUNU PRIMARY SCHOOL,10.686975,10.564892,JAMARI WARD,ALONG DOKORO JAMARI ROAD,1160410057,Pre-Primary and Primary,Rural,Regular,Yes,No Source of Safe Water,No Health facility,No,No,No,2020/2021,60,83,143
GOMBE,DUKKU,GULI EAST,10.82646,10.824514,WAZIRI NORTH,"ALONG BAJOGA ROAD, GULI",1160410058,Pre-Primary and Primary,Rural,Regular,No,Well,First Aid Kit,Yes,No,No,2020/2021,136,131,267
GOMBE,DUKKU,GULI WEST,10.828243,10.817857,WAZIRI NORTH,ALONG BAJOGA ROAD GULI,1160410059,Pre-Primary and Primary,Rural,Regular,No,Well,No Health facility,No,No,No,2020/2021,33,49,82
GOMBE,DUKKU,GUSHO,10.54,10.85,ZANGE WARD,"EMIRS HOUSE, GUSHO",1160410060,Pre-Primary and Primary,Rural,Regular,No,Well,No Health facility,Yes,No,Yes,2020/2021,128,103,231
GOMBE,DUKKU,GUZA PRIMARY SCHOOL,10.505924,10.426111,WAZIRI NORTH,"GUZA, ALONG DUKKU DARAZO ROAD",1160410061,Pre-Primary and Primary,Rural,Regular,No,No Source of Safe Water,No Health facility,No,No,No,2020/2021,49,45,94
GOMBE,DUKKU,HASHIDU,10.825038,10.668146,HASHIDU WARD,HASHIDU,1160410062,Pre-Primary and Primary,Rural,Regular,No,No Source of Safe Water,First Aid Kit,No,No,No,2020/2021,444,371,815
GOMBE,DUKKU,HARUNA R.ASHEED,10.831232,10.77459,WAZIRI NORTH,SABON FEGI DUKKU,1160410063,Pre-Primary and Primary,Urban,Regular,No,No Source of Safe Water,First Aid Kit,No,Yes,Yes,2020/2021,299,269,568
GOMBE,DUKKU,JARKUM    PRIMARY SCHOOL,10.78755,10.891328,DUKKU NORTH,"ALONG BAJOGA ROAD, JARKUM",1160410064,Pre-Primary and Primary,Rural,Regular,No,Well,No Health facility,No,No,No,2020/2021,125,95,220
GOMBE,DUKKU,JALINGO PRIMARY SCHOOL,10.93931,10.6833,JALINGO WARD,JALINGO,1160410065,Pre-Primary and Primary,Rural,Regular,No,No Source of Safe Water,No Health facility,Yes,No,No,2020/2021,94,56,150
GOMBE,DUKKU,JAURO ADI PRIMARY SCHOOL,10.939765,10.675289,ANGUWAR JAURO,ALONG MALALA ROAD,1160410066,Pre-Primary and Primary,Rural,Regular,No,No Source of Safe Water,No Health facility,Yes,No,No,2020/2021,133,84,217
GOMBE,DUKKU,JAURO AMADU,10.565171,10.565171,ZANGE WARD,JAURO AMADU  ALONG TOWN CLINIC,1160410067,Pre-Primary and Primary,Rural,Regular,No,No Source of Safe Water,No Health facility,Yes,No,No,2020/2021,96,32,128
GOMBE,DUKKU,JAMBO,10.683245,10.75964,ZANGE WARD,JAMBO,1160410068,Pre-Primary and Primary,Rural,Regular,No,No Source of Safe Water,No Health facility,No,No,No,2020/2021,89,74,163
GOMBE,DUKKU,JALE PRIMARY SCHOOL,10.47,10.78,ZANGE WARD,"EMIRS PALACE, JALE",1160410069,Pre-Primary and Primary,Rural,Regular,No,Well,First Aid Kit,Yes,No,Yes,2020/2021,83,79,162
GOMBE,DUKKU,JAMARI,,,JAMARI WARD,"EMIRS PALACE ROAD OPPOSITE PDP OFFICE, JAMARI",1160410070,Pre-Primary and Primary,Rural,Regular,No,No Source of Safe Water,No Health facility,No,No,Yes,2020/2021,146,141,287
GOMBE,DUKKU,JANGIRA,,,GOMBE ABBA,"BEFORE JAURO'S HOUSE, JANGIRA",1160410071,Pre-Primary and Primary,Rural,Regular,No,No Source of Safe Water,No Health facility,No,No,Yes,2020/2021,101,129,230
GOMBE,DUKKU,JARDADE PRIMARY SCHOOL,10.7087,10.83691,WAZIRI SOUTH,ALONG VILLAGE HEAD PALACE,1160410072,Pre-Primary and Primary,Rural,Regular,No,No Source of Safe Water,No Health facility,No,No,No,2020/2021,54,62,116
GOMBE,DUKKU,JONDE,10.6,10.5,WAZIRI SOUTH,JONDE,1160410073,Pre-Primary and Primary,Rural,Regular,No,No Source of Safe Water,No Health facility,No,No,No,2020/2021,53,29,82
GOMBE,DUKKU,KABADE PRIMARY SCHOOL,10.895213,10.653268,WURO TALE,KABADE,1160410074,Pre-Primary and Primary,Rural,Regular,No,No Source of Safe Water,No Health facility,No,No,No,2020/2021,148,140,288
GOMBE,DUKKU,KALAM,10.947973,10.774846,WURO TALE,KALAM,1160410075,Pre-Primary and Primary,Rural,Regular,No,No Source of Safe Water,No Health facility,No,No,No,2020/2021,221,196,417
GOMBE,DUKKU,KALOMA PRIMARY SCHOOL,11.035648,10.900693,JAMARI WARD,"JAMARI ROAD NEAR MAIN MARKET, KALOMA",1160410076,Pre-Primary and Primary,Rural,Regular,No,No Source of Safe Water,No Health facility,No,No,Yes,2020/2021,125,77,202
GOMBE,DUKKU,KOBLO PRIMARY SCHOOL,10.481448,10.911597,ZANGE WARD,KOBLO,1160410077,Pre-Primary and Primary,Rural,Regular,No,Well,No Health facility,No,No,Yes,2020/2021,103,70,173
GOMBE,DUKKU,KOBINI PRIMARY SCHOOL,10.574155,10.762724,ZANGE WARD,ALONG DUKKU ALKALERI ROAD,1160410078,Pre-Primary and Primary,Rural,Regular,No,Borehole,No Health facility,No,No,No,2020/2021,55,40,95
GOMBE,DUKKU,KOKKOBE,,,KUNDE,"AFTER JAURO HOUSE DAMINYA ROAD, KOKKOBE",1160410080,Pre-Primary and Primary,Rural,Regular,No,Other,No Health facility,Yes,No,Yes,2020/2021,102,100,202
GOMBE,DUKKU,KOMBI GABULU PRIMARY,10.791782,10.820973,,ALONG GOMBE ROADKOMBI,1160410081,Pre-Primary and Primary,Rural,Regular,No,No Source of Safe Water,No Health facility,No,No,Yes,2020/2021,161,128,289
GOMBE,DUKKU,KUKAN ZAURE PRIMARY SCHOOL,10.956776,10.857893,JAMARI WARD,"ALONG DUKKU DOKORO, KUKAN ZAURE",1160410082,Pre-Primary and Primary,Rural,Regular,No,No Source of Safe Water,No Health facility,No,Yes,No,2020/2021,93,136,229
GOMBE,DUKKU,KUNDE,10.425175,10.314542,KUNDE,"OPPOSITE MATERNITY CLINIC BAWA ROAD, KUNDE",1160410083,Pre-Primary and Primary,Rural,Regular,No,Borehole,First Aid Kit,No,No,No,2020/2021,138,108,246
GOMBE,DUKKU,KUNI,10.700168,10.690935,ZANGE WARD,KUNI,1160410084,Pre-Primary and Primary,Rural,Regular,No,No Source of Safe Water,No Health facility,No,No,Yes,2020/2021,215,165,380
GOMBE,DUKKU,KOWAGOL,10.991958,10.714209,MALALA,KOWAGOL,1160410085,Pre-Primary and Primary,Rural,Regular,No,Well,First Aid Kit,No,No,Yes,2020/2021,128,98,226
GOMBE,DUKKU,KATSIRA,11.12278,10.93677,JAMARI WARD,EMIRS PALACE ROAD ADJECENT CENTRAL MOSQUE KATSIRA,1160410086,Pre-Primary and Primary,Rural,Regular,Yes,No Source of Safe Water,No Health facility,Yes,No,Yes,2020/2021,107,99,206
GOMBE,DUKKU,K/KASUWA,11.081767,11.015808,JAMARI WARD,ALONG EMIRS PALACE CENTRAL MOSQUE K/KASUWA,1160410087,Pre-Primary and Primary,Rural,Regular,Yes,No Source of Safe Water,No Health facility,,No,No,2020/2021,97,67,164
GOMBE,DUKKU,LAFIYA,10.972465,10.680376,ANGUWAR WAZIRI,LAFIYA,1160410088,Pre-Primary and Primary,Rural,Regular,No,No Source of Safe Water,First Aid Kit,No,No,No,2020/2021,211,206,417
GOMBE,DUKKU,LAMBA GANDE PRIMARY SCHOOL,10.762118,10.561327,GOMBE ABBA,LAMBA GANDE ALONG GOMBE ABBA KUNDE ROAD,1160410089,Pre-Primary and Primary,Rural,Regular,No,No Source of Safe Water,No Health facility,Yes,No,No,2020/2021,178,146,324
GOMBE,DUKKU,LAMBA IYAKA PRIMARY SCHOOL,10.739677,10.556972,KUNDE,"AT EMIRS PALACE, L/IYAKA",1160410090,Pre-Primary and Primary,Rural,Regular,No,No Source of Safe Water,No Health facility,No,No,Yes,2020/2021,80,63,143
GOMBE,DUKKU,LARISKI PRIMARY SCHOOL,11.062,10.7346,MALALA,"ALONG WALOJI BURARI ROAD MALALA, LARISKI",1160410091,Pre-Primary and Primary,Rural,Regular,No,No Source of Safe Water,First Aid Kit,No,No,No,2020/2021,86,60,146
GOMBE,DUKKU,LULE DABE PRIMARY SCHOOL,10.779641,10.577831,GOMBE ABBA,ALONG GOMBE ABBA KUNDE ROAD,1160410092,Pre-Primary and Primary,Rural,Regular,No,No Source of Safe Water,No Health facility,,No,No,2020/2021,70,85,155
GOMBE,DUKKU,LULE MAGI   PRIMARY SCHOOL,10.775792,10.581275,GOMBE ABBA,"AT EMIRS PALACE, LULE MAGI",1160410093,Pre-Primary and Primary,Rural,Regular,No,No Source of Safe Water,No Health facility,No,No,No,2020/2021,30,20,50
GOMBE,DUKKU,LULE SEGO PRIMARY SCHOOL,10.7697829,10.5886508,GOMBE ABBA,"ALONG JAURO'S HOUSE, LULE SEGO",1160410094,Pre-Primary and Primary,Rural,Regular,No,No Source of Safe Water,No Health facility,Yes,No,No,2020/2021,84,38,122
GOMBE,DUKKU,LULE WURO BORNO,10.746782,10.595613,GOMBE ABBA,OPPOSITE JAURO'S HOUSE LULE WURO BORNO,1160410095,Pre-Primary and Primary,Rural,Regular,No,No Source of Safe Water,No Health facility,Yes,No,Yes,2020/2021,100,94,194
GOMBE,DUKKU,MAGAJI ISA  PRIMARY SCHOOL,10.813547,10.77135,WAZIRI SOUTH,ALONG KATUNDUN MAGAJI ISA,1160410096,Pre-Primary and Primary,Urban,Regular,No,Other,First Aid Kit,No,Yes,Yes,2020/2021,410,382,792
GOMBE,DUKKU,MALALA I NURSERY AND PRIMARY SCHOOL,11.0007214,10.743968,,"ALONG HASHIDU ROAD, MALALA",1160410097,Pre-Primary and Primary,Rural,Regular,No,Borehole,First Aid Kit,Yes,No,No,2020/2021,494,382,876
GOMBE,DUKKU,MALALAYEL PRIMARY SCHOOL,10.730398,11.866903,WAZIRI SOUTH,ANGUWAR GABAS NEAR CENTRAL MOSQUE OPPOSITE MATERNITY CLINIC,1160410098,Pre-Primary and Primary,Rural,Regular,No,No Source of Safe Water,No Health facility,Yes,Yes,No,2020/2021,148,115,263
GOMBE,DUKKU,MALTEWO,10.983622,10.692073,MALTEWO WARD,MALTEWO,1160410099,Pre-Primary and Primary,Rural,Regular,No,No Source of Safe Water,No Health facility,No,No,No,2020/2021,89,105,194
GOMBE,DUKKU,MAMINI  PRIMARY SCHOOL,,,JAMARI WARD,ALONG EMIRS PALACE ROAD OPPOSITE CENTRAL MOSQUE MAMINI,1160410100,Pre-Primary and Primary,Rural,Regular,No,No Source of Safe Water,No Health facility,No,No,Yes,2020/2021,57,74,131
GOMBE,DUKKU,MANGA,10.805133,10.769884,WAZIRI NORTH,"TUDUN WADA DAURAWA DUKKU, MANGA",1160410101,Pre-Primary and Primary,Urban,Regular,No,No Source of Safe Water,First Aid Kit,No,No,No,2020/2021,241,244,485
GOMBE,DUKKU,MAYO LAMIDO    PRIMARY SCHOOL,10.896605,10.653268,WURO TALE,"ALONG GOMBE ABBA ROAD, M/LAMIDO",1160410102,Pre-Primary and Primary,Rural,Regular,No,No Source of Safe Water,No Health facility,No,No,Yes,2020/2021,115,45,160
GOMBE,DUKKU,M/MADAKI,10.825016,10.770921,WURO TALE,MAYO LAMIDO STREET,1160410103,Pre-Primary and Primary,Rural,Regular,No,Borehole,No Health facility,No,No,No,2020/2021,61,51,112
GOMBE,DUKKU,MARU,10.903945,11.025487,JAMARI WARD,ALONG BAJOGA ROAD MARU,1160410104,Pre-Primary and Primary,Rural,Regular,No,No Source of Safe Water,No Health facility,Yes,No,No,2020/2021,173,105,278
GOMBE,DUKKU,MBARRI,10.510718,10.801598,DUKKU,MBARRI,1160410105,Pre-Primary and Primary,Rural,Regular,No,No Source of Safe Water,No Health facility,No,No,Yes,2020/2021,93,85,178
GOMBE,DUKKU,MALALA II NURSERY AND PRIMARY SCHOOL,11.015089,10.749009,,"ALONG WALOJI, MALALA II",1160410107,Pre-Primary and Primary,Rural,Regular,No,Well,First Aid Kit,No,No,No,2020/2021,357,278,635
GOMBE,DUKKU,MAGAJI BORNOMA   PRIMARY SCHOOL,10.92198,10.20568,,MAGAJI BORNOMA,1160410108,Pre-Primary and Primary,Rural,Regular,No,No Source of Safe Water,No Health facility,No,No,Yes,2020/2021,113,92,205
GOMBE,DUKKU,NAKUJA PRIMARY SCHOOL,1078014.0,1076893.0,WAZIRI SOUTH,OPPOSITE VILLAGE HEAD RESIDENCE,1160410109,Pre-Primary and Primary,Rural,Regular,No,No Source of Safe Water,No Health facility,No,No,No,2020/2021,41,30,71
GOMBE,DUKKU,NAPPE PRIMARY SCHOOL,1040547.0,10525634.0,WAZIRI SOUTH,"NAPPE, ALONG GOMBE MAIN ROAD",1160410110,Pre-Primary and Primary,Rural,Regular,No,No Source of Safe Water,First Aid Kit,No,No,Yes,2020/2021,140,111,251
GOMBE,DUKKU,NGAMDU,10.289789,11.113129,WAZIRI NORTH DUKKU,NGAMDU,1160410111,Pre-Primary and Primary,Rural,Regular,No,No Source of Safe Water,No Health facility,Yes,No,Yes,2020/2021,58,61,119
GOMBE,DUKKU,NGYELBUNU PRIMARY SCHOOL,,,WAZIRI NORTH,"NGYELBUNU, NEAR BUSTER, ALONG DARAZO ROAD",1160410112,Pre-Primary and Primary,Rural,Regular,No,No Source of Safe Water,No Health facility,Yes,No,No,2020/2021,129,58,187
GOMBE,DUKKU,PAKKAR,,,GOMBE ABBA,"OPPOSITE JAURO'S HOUSE, PAKKAR",1160410113,Pre-Primary and Primary,Rural,Regular,No,Borehole,No Health facility,No,No,No,2020/2021,287,152,439
GOMBE,DUKKU,SABON GARI ADUWA  PRIMARY SCHOOL,11.084101,11.1100925,JAMARI WARD,S/GARI ADUWA,1160410114,Pre-Primary and Primary,Rural,Regular,No,No Source of Safe Water,No Health facility,Yes,No,Yes,2020/2021,162,73,235
GOMBE,DUKKU,SEBIDU KARI PRIMARY SCHOOL,10.4,10.33,KUNDE,"AT JAURO'S HOUSE, SEBIDU KARI",1160410115,Pre-Primary and Primary,Rural,Regular,No,No Source of Safe Water,No Health facility,No,No,No,2020/2021,114,59,173
GOMBE,DUKKU,SEBIDU WAZIRI,10.43,10.334,KUNDE,"AT JAURO HOUSE, SEBIDU WAZIRI",1160410116,Pre-Primary and Primary,Rural,Regular,No,Well,No Health facility,No,No,No,2020/2021,64,62,126
GOMBE,DUKKU,SEYUM PRIMARY SCHOOL,10.7598313,10.7027118,ZANGE WARD,"ALONG DASHI ROAD DUKKU, SEYUM",1160410117,Pre-Primary and Primary,Rural,Regular,No,No Source of Safe Water,No Health facility,Yes,No,No,2020/2021,71,32,103
GOMBE,DUKKU,SHABEWA PRIMARY SCHOOL,10.80479,10.77241,DUKKU SOUTH,"ALONG EMIR PALACE  ALKALERI STREET, SHABEWA",1160410118,Pre-Primary and Primary,Rural,Regular,No,No Source of Safe Water,First Aid Kit,No,No,No,2020/2021,184,145,329
GOMBE,DUKKU,SHUWE PRIMARY SCHOOL,10.7,10.8,WAZIRI SOUTH,ALONG GOMBE MAIN ROAD OPPOSITE MATERNITY AND CHILD CLINIC,1160410119,Pre-Primary and Primary,Rural,Regular,No,No Source of Safe Water,Health Clinic,No,No,No,2020/2021,100,104,204
GOMBE,DUKKU,SHALLUDI,10.77054,10.79308,WAZIRI SOUTH,ALONG GOMBE ROAD SHALLUDI,1160410120,Pre-Primary and Primary,Rural,Regular,No,No Source of Safe Water,No Health facility,Yes,No,No,2020/2021,89,69,158
GOMBE,DUKKU,SUKA,10.822206,10.994034,,ALONG BAJOGA ROAD SUKA,1160410121,Pre-Primary and Primary,Rural,Regular,No,No Source of Safe Water,First Aid Kit,Yes,No,No,2020/2021,177,161,338
GOMBE,DUKKU,TALE,11.00409,10.670033,BAKIN GANUWA,TALE,1160410122,Pre-Primary and Primary,Rural,Regular,No,No Source of Safe Water,No Health facility,No,No,Yes,2020/2021,78,68,146
GOMBE,DUKKU,TAMBAJAM,11.0088,10.77,,ALONG MALALA ZAUNE ROAD TAMBAJAM,1160410123,Pre-Primary and Primary,Rural,Regular,No,No Source of Safe Water,No Health facility,No,No,No,2020/2021,124,70,194
GOMBE,DUKKU,TILEL,,,DUKKU NORTH,TILEL,1160410124,Pre-Primary and Primary,Rural,Regular,No,No Source of Safe Water,No Health facility,Yes,No,No,2020/2021,124,86,210
GOMBE,DUKKU,TIMBU I     PRIMARY SCHOOL,10.902345,10.665864,WURO TALE,ALONG KOGIN DOLE MAYO LAMIDO ROAD,1160410125,Pre-Primary and Primary,Rural,Regular,No,No Source of Safe Water,No Health facility,No,No,No,2020/2021,118,72,190
GOMBE,DUKKU,TIMBU II    PRIMARY SCHOOL,10.1723248,11.647264,WURO TALE,TIMBU II,1160410126,Pre-Primary and Primary,Rural,Regular,No,No Source of Safe Water,No Health facility,Yes,No,No,2020/2021,84,70,154
GOMBE,DUKKU,TINDA,10.77757,10.891351,WAZIRI NORTH,ALONG SUNKA ROAD TINDA,1160410127,Pre-Primary and Primary,Rural,Regular,No,No Source of Safe Water,No Health facility,No,No,Yes,2020/2021,93,70,163
GOMBE,DUKKU,TOGOYEL PRIMARY SCHOOL,10.7685,10.8383,WAZIRI SOUTH,"TOGOYEL, ALONG EMIR'S PALACE ROAD",1160410128,Pre-Primary and Primary,Rural,Regular,No,No Source of Safe Water,No Health facility,No,No,No,2020/2021,47,25,72
GOMBE,DUKKU,TUMPURE PRIMARY SCHOOL,10.710891,10.751342,ZANGE WARD,ALONG DUKKU ALKALERI ROAD,1160410129,Pre-Primary and Primary,Rural,Regular,No,Well,No Health facility,Yes,No,Yes,2020/2021,126,60,186
GOMBE,DUKKU,WOILARE PRIMARY SCHOOL,,,HASHIDU WARD,ALONG MALALA,1160410130,Pre-Primary and Primary,Rural,Regular,No,No Source of Safe Water,First Aid Kit,No,No,No,2020/2021,438,367,805
GOMBE,DUKKU,WAKALO PRIMARY SCHOOL,10.75597,10.755875,WAZIRI SOUTH,"WAKALO, BEHIND CENTRAL MOSQUE",1160410131,Pre-Primary and Primary,Rural,Regular,No,No Source of Safe Water,No Health facility,No,No,No,2020/2021,38,39,77
GOMBE,DUKKU,WALOJI MALALA,11.03,10.74,MALALA,ALONG BURARI ROAD,1160410132,Pre-Primary and Primary,Rural,Regular,No,Well,No Health facility,Yes,No,Yes,2020/2021,99,88,187
GOMBE,DUKKU,WALOJI TARA PRIMARY SCHOOL,,,GOMBE ABBA,ALONG DARAZO GOMBE ABBA ROAD,1160410133,Pre-Primary and Primary,Rural,Regular,No,Pipe borne Water,No Health facility,Yes,No,No,2020/2021,86,33,119
GOMBE,DUKKU,WALOWA ARDO,10.4228,10.343,KUNDE,OPPOSITE JAURO'S HOUSE WALOWA ARDO,1160410134,Pre-Primary and Primary,Rural,Regular,No,No Source of Safe Water,No Health facility,No,No,No,2020/2021,120,104,224
GOMBE,DUKKU,WALAMA,10.842363,10.677252,GOMBE ABBA,WALAMA,1160410135,Pre-Primary and Primary,Rural,Regular,No,Well,Health Clinic,No,No,Yes,2020/2021,90,75,165
GOMBE,DUKKU,W/ZANGE,10.582273,10.910747,ZANGE WARD,W/ZANGE,1160410136,Pre-Primary and Primary,Rural,Nomadic (Migrants),No,No Source of Safe Water,No Health facility,No,No,Yes,2020/2021,141,94,235
GOMBE,DUKKU,WEDU KOLE PRIMARY SCHOOL,10.76778,10.77938,DUKKU SOUTH,"NAKUJA, WEDU KOLE",1160410137,Pre-Primary and Primary,Rural,Regular,No,No Source of Safe Water,First Aid Kit,Yes,No,No,2020/2021,82,74,156
GOMBE,DUKKU,WURO AMALE,10.49959,10.45523,WAZIRI SOUTH,"ALONG INEC ROAD DUKKU, WURO AMALE",1160410138,Pre-Primary and Primary,Rural,Regular,No,No Source of Safe Water,No Health facility,Yes,No,No,2020/2021,166,130,296
GOMBE,DUKKU,WURO BUNDU PRIMARY SCHOOL,11.017811,10.731562,,"NORTH WESTERN MALALA, WURO BUNDU",1160410139,Pre-Primary and Primary,Rural,Regular,No,No Source of Safe Water,No Health facility,No,No,No,2020/2021,49,64,113
GOMBE,DUKKU,WURO DAMA,10.785918,10.64847,GOMBE ABBA,"ALONG JAURO'S HOUSE, WURO DAMA",1160410140,Pre-Primary and Primary,Rural,Regular,No,Well,No Health facility,Yes,No,No,2020/2021,156,98,254
GOMBE,DUKKU,WURO HAIRE,11.011033,10.87929,JAMARI WARD,"ALONG KALOMA ROAD, WURO HAIRE",1160410141,Pre-Primary and Primary,Rural,Regular,No,No Source of Safe Water,No Health facility,Yes,No,No,2020/2021,95,36,131
GOMBE,DUKKU,WURO JAURO PRIMARY SCHOOL,10.869252,10.680742,ANGUWAR JAURO,WURO JAURO,1160410142,Pre-Primary and Primary,Rural,Regular,No,No Source of Safe Water,No Health facility,No,No,No,2020/2021,115,116,231
GOMBE,DUKKU,WURO KUDU PRIMARY SCHOOL,10.45901,10.81153,ZANGE WARD,WURO KUDU,1160410143,Pre-Primary and Primary,Rural,Regular,No,No Source of Safe Water,No Health facility,Yes,No,Yes,2020/2021,54,26,80
GOMBE,DUKKU,WURO TALE,11.00937,10.760138,WURO TALE,"ALONG MAYO LAMIDO, DOKORO ROAD",1160410144,Pre-Primary and Primary,Rural,Regular,No,No Source of Safe Water,No Health facility,Yes,Yes,No,2020/2021,125,104,229
GOMBE,DUKKU,WURO WAMBAI,10.879949,10.686517,ANGUWAR FADA,WURO WAMBAI,1160410145,Pre-Primary and Primary,Rural,Regular,No,No Source of Safe Water,No Health facility,No,No,No,2020/2021,77,49,126
GOMBE,DUKKU,YADO PRIMARY SCHOOL,10.7318,10.88,WAZIRI SOUTH,YADO,1160410146,Pre-Primary and Primary,Rural,Regular,No,No Source of Safe Water,No Health facility,Yes,No,No,2020/2021,52,19,71
GOMBE,DUKKU,YELWAN MALUMU,11.050574,10.804978,,"ALONG MALALA ZAUNE ROAD, YELWAN MALUMU",1160410147,Pre-Primary and Primary,Rural,Regular,No,No Source of Safe Water,No Health facility,Yes,No,No,2020/2021,150,100,250
GOMBE,DUKKU,YOLE PRIMARY SCHOOL,10.828214,10.6493,GOMBE ABBA,YOLE,1160410148,Pre-Primary and Primary,Rural,Regular,No,No Source of Safe Water,No Health facility,No,No,No,2020/2021,152,97,249
GOMBE,DUKKU,ZANGE PRIMARY SCHOOL,10.55,10.77,ZANGE WARD,UNGUWAN MADAKI OPPOSITE HAKIMI PALACE ZANGE,1160410149,Pre-Primary and Primary,Rural,Regular,No,No Source of Safe Water,No Health facility,Yes,Yes,Yes,2020/2021,111,71,182
GOMBE,DUKKU,ZANGALA,,,ZANGE WARD,ZANGALA,1160410150,Pre-Primary and Primary,Rural,Regular,No,No Source of Safe Water,No Health facility,No,No,No,2020/2021,106,91,197
GOMBE,DUKKU,ZAUNE PRIMARY SCHOOL,,,ZAUNE,"ALONG HASHIDU MALALA ROAD, ZAUNE",1160410151,Pre-Primary and Primary,Rural,Regular,No,Well,No Health facility,No,No,Yes,2020/2021,137,127,264
GOMBE,DUKKU,WURO TARA,,,GOMBE ABBA,WURO TARA,1160410152,Pre-Primary and Primary,Rural,Regular,No,Pipe borne Water,No Health facility,No,Yes,No,2020/2021,79,37,116
GOMBE,DUKKU,KOMBI DIZOJE PRIMARY SCHOOL,10.785,10.81,WAZIRI SOUTH,ALONG GOMBE- DUKKU ROAD,1160410158,Pre-Primary and Primary,Rural,Regular,No,No Source of Safe Water,No Health facility,No,No,No,2020/2021,53,49,102
GOMBE,DUKKU,HASHIDU NURSERY SCHOOL,10.89971,10.6528,ANGUWAR MADAKI,ALONG EMIR'S PALACE STREET HASHIDU,1160410159,Pre-Primary and Primary,Rural,Regular,No,No Source of Safe Water,First Aid Kit,No,No,No,2020/2021,55,75,130
GOMBE,DUKKU,NIGERIA KOREA MODEL PRIMARY SCHOOL DUKKU,10.821573,10.760617,WAZIRI SOUTH,"NO. I UP DARAZO ROAD OPPOSITE OLD SECRETERIAT  ROAD,  DUKKU",1160410161,Pre-Primary and Primary,Urban,Regular,No,Pipe borne Water,First Aid Kit,No,No,No,2020/2021,323,276,599
GOMBE,DUKKU,WANGI PRIMARY SCHOOL,10.2783572,10.7351728,ZANGE,DANBAZAU,1160410162,Pre-Primary and Primary,Rural,Regular,No,No Source of Safe Water,No Health facility,Yes,No,No,2020/2021,20,34,54
GOMBE,DUKKU,WOMEN EDUCATION CENTRE DUKKU,10.825338,10.76556,DUKKU SOUTH,SECTARIAT ROAD DUKKU,1160410163,Pre-Primary and Primary,Urban,Regular,No,No Source of Safe Water,No Health facility,No,No,No,2020/2021,42,40,82
GOMBE,DUKKU,KOLE PRIMARY SCHOOL,10.822939,10.772934,WURO TALE,ALONG DUKKU DOKORO ROAD,1160410164,Pre-Primary and Primary,Rural,Regular,No,No Source of Safe Water,No Health facility,Yes,No,Yes,2020/2021,145,124,269
GOMBE,DUKKU,ECCDE DUKKU CENTRAL,10.823866,10773984.0,WAZIRI NORTH,"NEAR EMIR'S PALACE, DUKKU",1160410166,Pre-Primary and Primary,Urban,Regular,No,Pipe borne Water,First Aid Kit,No,Yes,No,2020/2021,44,43,87
GOMBE,DUKKU,TUDUN WADA NURSERY SCHOOL DUKKU,10.819623,10.774638,WAZIRI NORTH,SUPER MARKET STREET NEAR NEPA  OFFICE DUKKU,1160410167,Pre-Primary and Primary,Urban,Regular,No,No Source of Safe Water,First Aid Kit,Yes,No,No,2020/2021,30,16,46
GOMBE,DUKKU,ADAMU SAMBO PRIMARY SCHOOL,10.82064,10.768597,WAZIRI SOUTH,SHAGARI STREET OPPOSITE FCMB BANK DUKKU BRANCH,1160410168,Pre-Primary and Primary,Urban,Regular,No,Other,No Health facility,No,Yes,No,2020/2021,173,151,324
GOMBE,DUKKU,WURO KOLON PRIMARY SCHOOL,10.7479,10.7719,WAZIRI SOUTH,WURO KOLON,1160410169,Pre-Primary and Primary,Rural,Regular,No,No Source of Safe Water,No Health facility,,No,No,2020/2021,38,51,89
GOMBE,DUKKU,DABEWO PRIMARY SCHOOL,10.7778435,10.6186617,GOMBE ABBA,ANGUWAN ARDO,1160410170,Pre-Primary and Primary,Rural,Regular,No,No Source of Safe Water,No Health facility,,No,No,2020/2021,134,75,209
GOMBE,DUKKU,WURO BEI PRIMARY SCHOOL,10.81741,10.62263,GOMBE ABBA,KOFAR JAURO WURO BEI,1160410171,Pre-Primary and Primary,Rural,Regular,No,No Source of Safe Water,No Health facility,Yes,No,No,2020/2021,88,77,165
GOMBE,DUKKU,DANBE DABE PRIMARY SCHOOL,10.649032,10.907844,ZANGE WARD,ALONG ZANGE WARD,1160410172,Pre-Primary and Primary,Rural,Regular,No,No Source of Safe Water,No Health facility,,No,No,2020/2021,104,60,164
GOMBE,DUKKU,JAMTAMIDA PRIMARY SCHOOL DUKKU,10.74277,10.84262,WAZIRI NORTH,JAMARI STREET,1160410173,Pre-Primary and Primary,Rural,Regular,No,No Source of Safe Water,No Health facility,,No,No,2020/2021,33,42,75
GOMBE,DUKKU,MALALA III PRIMARY SCHOOL,11.002787,10.747678,MALALA,MADAKI BABA GOJE STREET,1160410174,Pre-Primary and Primary,Rural,Regular,No,No Source of Safe Water,First Aid Kit,,No,No,2020/2021,45,43,88
GOMBE,DUKKU,FEDERAL LOWCOST PRIMARY SCHOOL DUKKU,10.8121,10.7809,WAZIRI NORTH,ALONG GOMBE ROAD DUKKU,1160410175,Pre-Primary and Primary,Urban,Regular,No,No Source of Safe Water,No Health facility,No,Yes,No,2020/2021,66,41,107
GOMBE,DUKKU,ECCD GONA DUKKU,10.81891,11.777222,DUKKU SOUTH,GONA QUATERS DUKKU,1160410176,Pre-Primary and Primary,Urban,Regular,No,No Source of Safe Water,First Aid Kit,No,No,No,2020/2021,39,51,90
GOMBE,DUKKU,JAURO GIDADO PRIMARY SCHOOL,10.887264,10.919293,WAZIRI NORTH,JAURO GIDADO,1160410177,Pre-Primary and Primary,Rural,Regular,No,No Source of Safe Water,No Health facility,No,No,No,2020/2021,55,25,80
GOMBE,DUKKU,WAJJURU PRIMARY SCHOOL,10.608512,10.87,ZANGE WARD,WAJJURU ALONG ZANGE ROAD,1160410178,Pre-Primary and Primary,Rural,Regular,No,Other,No Health facility,No,No,No,2020/2021,26,35,61
GOMBE,DUKKU,NAKAYA PRIMARY SCHOOL,10.784345,10.860554,WAZIRI SOUTH,ALONG BAJOGA ROAD DUKKU,1160410179,Pre-Primary and Primary,Rural,Regular,No,No Source of Safe Water,No Health facility,Yes,No,No,2020/2021,96,142,238
GOMBE,DUKKU,KOMBI BOZOM PRIMARY SCHOOL,10.473,10.49,WAZIRI SOTH,KOMBI BOZOM,1160410180,Pre-Primary and Primary,Rural,Regular,No,No Source of Safe Water,No Health facility,No,No,No,2020/2021,29,27,56
GOMBE,DUKKU,MAREWO PRIMARY SCHOOL,10.942995,10.669108,LAFIYA TALE,MAREWO,1160410181,Pre-Primary and Primary,Rural,Regular,No,No Source of Safe Water,No Health facility,No,No,No,2020/2021,80,37,117
GOMBE,DUKKU,BAKARI DUKKU PRIMARY SCHOOL,,,WAZIRI SOUTH,ALONG A.Y.U QUARTERS,1160410182,Pre-Primary and Primary,Urban,Regular,No,No Source of Safe Water,No Health facility,No,No,No,2020/2021,58,52,110
GOMBE,DUKKU,BAGUBA PRIMARY SCHOOL,10.804,10.803,WAZIRI,ALONG BAJOGA ROAD,1160410183,Pre-Primary and Primary,Rural,Regular,No,No Source of Safe Water,No Health facility,Yes,No,No,2020/2021,38,43,81
GOMBE,DUKKU,BAMBA PRIMARY SCHOOL,10.49175,10.472802,WAZIRI SOUTH,ALONG BAJOGA ASHAKA ROAD,1160410184,Pre-Primary and Primary,Rural,Regular,No,No Source of Safe Water,No Health facility,Yes,No,No,2020/2021,134,109,243
GOMBE,DUKKU,GAYE PRIMARY SCHOOL,10.922408,10.922408,WURO TALE,NEAR WURO TALE,1160410185,Pre-Primary and Primary,Rural,Regular,No,No Source of Safe Water,No Health facility,No,No,No,2020/2021,25,33,58
GOMBE,DUKKU,DUGGAL PRIMARY SCHOOL,10.584124,10.77069,ZANGE,ZANGE ROAD,1160410186,Pre-Primary and Primary,Rural,Regular,No,No Source of Safe Water,No Health facility,Yes,No,No,2020/2021,105,52,157
GOMBE,DUKKU,PALIGOCCI PRIMARY SCHOOL,10.72193,10.693141,ZANGE,ALONG ZANGE ROAD,1160410187,Pre-Primary and Primary,Rural,Regular,No,No Source of Safe Water,No Health facility,Yes,No,No,2020/2021,54,36,90
GOMBE,DUKKU,MALAM MANU PRIMARY SCHOOL,10.81,10.7739,DOKORO,NEAR DOKORO ROAD,1160410188,Pre-Primary and Primary,Rural,Regular,No,No Source of Safe Water,No Health facility,Yes,No,No,2020/2021,48,73,121
GOMBE,DUKKU,NYOLEL PRIMARY SCHOOL,10.807638,10.610983,GOMBE ABBA,GALE STREET,1160410189,Pre-Primary and Primary,Rural,Regular,No,Well,No Health facility,Yes,No,No,2020/2021,79,45,124
GOMBE,DUKKU,DU-BADA PRIMARY SCHOOL,10.585711,10.694451,ZANGE,DU-BADA,1160410190,Pre-Primary and Primary,Rural,Regular,No,Well,No Health facility,Yes,No,No,2020/2021,20,15,35
GOMBE,DUKKU,TAYA PRIMARY SCHOOL,10.48,10.892,ZANGE,TAYA,1160410191,Pre-Primary and Primary,Rural,Regular,No,No Source of Safe Water,No Health facility,Yes,No,Yes,2020/2021,15,27,42
GOMBE,DUKKU,PAUYA PRIMARY SCHOOL,10.428583,10.817985,ZANGE,NEAR ZANGE,1160410192,Pre-Primary and Primary,Rural,Regular,No,No Source of Safe Water,No Health facility,,No,Yes,2020/2021,42,31,73
GOMBE,DUKKU,BULBULWO PRIMARY SCHOOL,10.79612,10.63344,GOMBE ABBA,ALONG JAURO'S RESIDENCE BULBULWO,1160410193,Pre-Primary and Primary,Rural,Regular,No,No Source of Safe Water,No Health facility,Yes,No,No,2020/2021,45,50,95
GOMBE,DUKKU,TSANGAYARI PRIMARY SCHOOL,11.037521,10.721852,MALALA,TSANGAYARI ALONG ZAUNE ROAD,1160410194,Pre-Primary and Primary,Rural,Regular,No,No Source of Safe Water,No Health facility,Yes,No,No,2020/2021,69,51,120
GOMBE,DUKKU,DILARA PRIMARY SCHOOL,10.9,10.7,WAZIRI NORTH,ALONG DOKORO ROAD,1160410195,Pre-Primary and Primary,Rural,Regular,No,No Source of Safe Water,No Health facility,Yes,No,No,2020/2021,31,26,57
GOMBE,DUKKU,BELI KAHE PRIMARY SCHOOL,10.635922,10.983445,ZANGE,NEAR GOMBE DEGIZE,1160410196,Pre-Primary and Primary,Rural,Regular,Yes,No Source of Safe Water,No Health facility,,Yes,Yes,2020/2021,65,70,135
GOMBE,DUKKU,BAYAN DUTSE PRIMARY SCHOOL,,,GOMBE ABBA,ALONG YOLE ROAD GOMBE ABBA,1160410197,Pre-Primary and Primary,Rural,Regular,No,Borehole,No Health facility,No,No,No,2020/2021,100,94,194
GOMBE,DUKKU,BAGADAZAN FULANI,10.549313,10.883118,ZANGE,ALONG BOZONSHILWA ROAD,1160410198,Pre-Primary and Primary,Rural,Regular,No,No Source of Safe Water,No Health facility,No,No,No,2020/2021,60,65,125
GOMBE,DUKKU,DANKIJE PRIMARY SCHOOL,10.82213,10.994403,WAZIRI NORTH,ALONG BAJOGA ROAD,1160410199,Pre-Primary and Primary,Rural,Nomadic (Migrants),No,No Source of Safe Water,No Health facility,No,No,No,2020/2021,43,58,101
GOMBE,DUKKU,GOMBE DEGIZE PRIMARY SCHOOL,10.3918,10.5919,WAZIRI SOUTH,ALONG GOMBE ROAD,1160410200,Pre-Primary and Primary,Rural,Regular,No,No Source of Safe Water,No Health facility,No,No,Yes,2020/2021,79,44,123
GOMBE,DUKKU,ECCDE SHABEWA NURSERY SCHOOL,10.80524,10.77154,DUKKU SOUTH,ALONG ALKALERI ROAD,1160410201,Pre-Primary and Primary,Rural,Regular,No,No Source of Safe Water,No Health facility,No,No,No,2020/2021,6,19,25
GOMBE,DUKKU,WURO FUNA PRIMARY SCHOOL,10.52,10.67,ZANGE,NEAR JAURO'S HOUSE,1160410202,Pre-Primary and Primary,Rural,Regular,No,No Source of Safe Water,No Health facility,,No,No,2020/2021,35,30,65
GOMBE,DUKKU,GJSS LAFIYA MAGAJI,11.005,10.745,LAFIYA TALE,UP MALALA ROAD LAFIYA,1160420001,Junior Secondary,Rural,Regular,No,No Source of Safe Water,No Health facility,,Yes,No,2020/2021,75,14,89
GOMBE,DUKKU,GJSS KUNDE,10.425151,10314624.0,KUNDE,"OPPOSITE BOHOLE ALONG ZEGO ROAD, BAWA ZEGO",1160420002,Junior Secondary,Rural,Regular,No,No Source of Safe Water,No Health facility,No,No,No,2020/2021,58,24,82
GOMBE,DUKKU,GJSS ZAUNE,11.05,10.839,,ALONG HASHIDU MALALA ROAD,1160420003,Junior Secondary,Rural,Regular,No,No Source of Safe Water,No Health facility,,Yes,Yes,2020/2021,51,25,76
GOMBE,DUKKU,GJSS DOKORO,1100390.0,1083411.0,JAMARI WARD,ALONG DOKORO/JAMARI ROAD,1160420004,Junior Secondary,Rural,Regular,No,No Source of Safe Water,No Health facility,No,Yes,Yes,2020/2021,56,23,79
GOMBE,DUKKU,GJSS MANGA,10.805133,10.769884,WAZIRI NORTH,"TUDUN WADA DAURAWA QUATERS, DUKKU",1160420005,Junior Secondary,Urban,Regular,Yes,No Source of Safe Water,First Aid Kit,No,Yes,No,2020/2021,78,22,100
GOMBE,DUKKU,GJSS KALAM,10.94,10.7,WURO TALE,WURO TALE GABCI YARI ROAD,1160420006,Junior Secondary,Rural,Regular,No,No Source of Safe Water,No Health facility,No,No,No,2020/2021,27,52,79
GOMBE,DUKKU,GJSS S/GARIN ADUWA,11.084111,11.00925,JAMARI WARD,"ALONG EMIRS PALACE, OPPOSITE MATERNITY CLINIC.",1160420007,Junior Secondary,Rural,Regular,No,No Source of Safe Water,First Aid Kit,No,No,No,2020/2021,49,38,87
GOMBE,DUKKU,GJSS JARKUM DUKKU,10.78755,10.891328,WAZIRI NORTH,ALONG BAJOGA ROAD,1160420008,Junior Secondary,Rural,Regular,No,No Source of Safe Water,No Health facility,No,No,No,2020/2021,47,57,104
GOMBE,DUKKU,GJSS ZANGE DUKKU,10.55,10.7769,ZANGE WARD,"ANGUWAN MADAKI, OPPOSITE HAKIMI'S PALACE",1160420009,Junior Secondary,Rural,Regular,No,No Source of Safe Water,No Health facility,No,No,Yes,2020/2021,38,28,66
GOMBE,DUKKU,GJSS GOMBE ABBA,10.49,10.36,GOMBE ABBA,GOMBE ABBA VILLAGE,1160420011,Junior Secondary,Rural,Regular,No,No Source of Safe Water,First Aid Kit,No,No,Yes,2020/2021,101,51,152
GOMBE,DUKKU,GJSS SHABEWA,10.8,10.77,WAZIRI SOUTH,ALONG TAMUSA GUEST HOUSE ROAD DUKKU,1160420012,Junior Secondary,Urban,Regular,No,No Source of Safe Water,No Health facility,,No,No,2020/2021,31,34,65
GOMBE,DUKKU,GJSS WURO TALE,11.005,10.74,WURO TALE,ALONG KALAM ROAD,1160420013,Junior Secondary,Rural,Regular,Yes,No Source of Safe Water,No Health facility,,Yes,Yes,2020/2021,55,30,85
GOMBE,DUKKU,GJSS MALALA,11.006245,10.7425,,ALONG HASHIDU ROAD ZAUNE ROAD,1160420014,Junior Secondary,Rural,Regular,No,Well,First Aid Kit,No,No,Yes,2020/2021,269,153,422
GOMBE,DUKKU,GJSS HASHIDU (GDSS),10.71156,10.647486,HASHIDU,"HASHIDU, ALONG MALALA ROAD",1160420015,Junior Secondary,Rural,Regular,No,Borehole,First Aid Kit,No,No,Yes,2020/2021,183,160,343
GOMBE,DUKKU,GJSS BOZONSHILWA,10.455,10.4887,WAZIRI SOUTH,ALONG GOMBE MAIN ROAD BOZONSHILWA,1160420016,Junior Secondary,Rural,Regular,No,No Source of Safe Water,First Aid Kit,No,No,No,2020/2021,35,8,43
GOMBE,DUKKU,GJSS DUKKU CENTRAL (GDSS),,,WAZIRI NORTH,ALONG EMIRS PALACE,1160420017,Junior Secondary,Urban,Regular,No,Other,First Aid Kit,No,No,No,2020/2021,548,417,965
GOMBE,DUKKU,GJSS GONA DUKKU,10.819455,10.77123,WAZIRI SOUTH,GONA STREET,1160420018,Junior Secondary,Urban,Regular,No,Other,First Aid Kit,No,No,No,2020/2021,19,7,26
GOMBE,DUKKU,GJSS DUKKU WEST (GDSS),10.491559,10.454796,WAZIRI SOUTH,ALONG GOMBE ROAD DUKKU,1160420019,Junior Secondary,Urban,Regular,No,No Source of Safe Water,First Aid Kit,No,Yes,No,2020/2021,202,156,358
GOMBE,DUKKU,GJSS MAYO LAMIDO,10.896605,10.653268,WURO TALE,ALONG MAYO MADAKI ROAD,1160420020,Junior Secondary,Rural,Regular,No,No Source of Safe Water,No Health facility,Yes,No,Yes,2020/2021,49,15,64
GOMBE,DUKKU,GOVERNMENT JUNIOR SECONDARY SCHOOL BURARI,11.06884,10.726857,MALALA,ALONG UNGUWAN SAJE,1160420022,Junior Secondary,Rural,Regular,No,No Source of Safe Water,First Aid Kit,No,Yes,Yes,2020/2021,21,27,48
GOMBE,DUKKU,GOVERNMENT JUNIOR SECONDARY SCHOOL WURO TARA,10.818181,10.77081,GOMBE ABBA,"ALONG GOMBE ABBA ROAD, DUKKU",1160420024,Junior Secondary,Rural,Regular,No,Pipe borne Water,No Health facility,No,Yes,No,2020/2021,27,10,37
GOMBE,DUKKU,GOVERNMENT JUNIOR SECONDARY SCHOOL GALE,10.82704,10.66832,GOMBE ABBA,GALE GOMBE ABBA,1160420025,Junior Secondary,Rural,Regular,No,No Source of Safe Water,No Health facility,Yes,Yes,No,2020/2021,41,23,64
GOMBE,DUKKU,GOVERNMENT JUNIOR SECONDARY SCHOOL JAMARI,11.048238,10.931471,JAMARI WARD,JAMARI,1160420026,Junior Secondary,Rural,Regular,No,No Source of Safe Water,No Health facility,No,No,Yes,2020/2021,49,21,70
GOMBE,DUKKU,GOVERNMENT JUNIOR SECONDARY SCHOOL JOMBO,10.683271,10.75963,ZANGE WARD,NEAR DISPENSARY JOMBO VILLAGE,1160420027,Junior Secondary,Rural,Regular,No,No Source of Safe Water,No Health facility,No,No,No,2020/2021,32,2,34
GOMBE,DUKKU,GJSS YOLE,10.555555,10.633205,GOMBE ABBA,OPPOSITE DISPENSARY YOLE,1160420028,Junior Secondary,Rural,Regular,No,No Source of Safe Water,First Aid Kit,Yes,Yes,Yes,2020/2021,43,14,57
GOMBE,DUKKU,GJSS BAWA ZEGO,10.413655,10.301074,KUNDE,ALONG GOMBE ABBA ALKALERI STREET,1160420029,Junior Secondary,Rural,Regular,No,No Source of Safe Water,No Health facility,No,Yes,No,2020/2021,28,47,75
GOMBE,DUKKU,GJSS MALALAYEL,10.730654,10.866789,WAZIRI SOUTH,ALONG GOMBE ROAD,1160420030,Junior Secondary,Rural,Regular,No,No Source of Safe Water,No Health facility,No,Yes,No,2020/2021,80,2,82
GOMBE,DUKKU,GJSS DUKKU FAMILY SUPPORT,,,WAZIRI SOUTH,ALONG A.Y.U,1160420031,Junior Secondary,Urban,Regular,No,No Source of Safe Water,No Health facility,No,Yes,No,2020/2021,11,15,26
GOMBE,DUKKU,GJSS DUKKU MODEL,,,WAZIRI SOUTH,ALONG GOMBE ROAD,1160420032,Junior Secondary,Urban,Regular,No,,,,Yes,No,2020/2021,27,21,48
GOMBE,DUKKU,GJSS DUKKU MODEL,10.81314,10.78104,WAZIRI SOUTH,ALONG GOMBE ROAD,1160420033,Junior Secondary,Urban,Regular,No,No Source of Safe Water,No Health facility,No,Yes,No,2020/2021,27,21,48
GOMBE,DUKKU,GDSS GOMBE ABBA,10491756.0,10364007.0,GOMBE ABBA,ALONG GALE ROAD,1160430002,Senior Secondary,Urban,Regular,Yes,No Source of Safe Water,Health Clinic,No,Yes,No,2020/2021,70,35,105
GOMBE,DUKKU,GCDSS HASHIDU,10891162.0,10647440.0,MADAKI WARD,ALONG EMIR'S PALACE STREET OPPOSITE OLD LOCAL GOVERNMENT SECRETARIAT,1160430003,Senior Secondary,Rural,Regular,No,Borehole,First Aid Kit,No,No,No,2020/2021,147,95,242
GOMBE,DUKKU,GDSS MALALA,11.017373,10.750335,MALALA,YAMUSA STREET MALALA,1160430004,Senior Secondary,Rural,Regular,No,Borehole,First Aid Kit,No,No,No,2020/2021,126,61,187
GOMBE,DUKKU,GCDSS DUKKU CENTRAL MODEL,,,WAZIRI NORTH,ALONG EMIRS STREET,1160430007,Senior Secondary,Urban,Regular,Yes,Other,First Aid Kit,No,Yes,No,2020/2021,388,256,644
GOMBE,DUKKU,GOVT DAY SECONDARY SCHOOL DUKKU WEST,10.821163,10.7698,WAZIRI NORTH,"LAFIYA QUARTERS, ALONG DUKKU DARAZO ROAD, OPPOSITE GRA DUKKU",1160430008,Senior Secondary,Urban,Regular,Yes,Borehole,First Aid Kit,No,Yes,No,2020/2021,278,98,376
GOMBE,DUKKU,GOVERNMENT SENIOR SECONDARY SCHOOL DUKKU MODEL,10.81314,10.78104,WAZIRI SOUTH,FEDERAL LOWCOST ALONG GOMBE ROAD DUKKU,1160430009,Senior Secondary,Urban,Regular,No,No Source of Safe Water,First Aid Kit,No,Yes,No,2020/2021,87,47,134
GOMBE,DUKKU,GDSS SHABEWA,10.80443,11.77064,WAZIRI SOUTH,ALONG TAMUSA GUEST HOUSE ROAD DUKKU,1160430010,Senior Secondary,Rural,Regular,No,No Source of Safe Water,First Aid Kit,No,Yes,No,2020/2021,63,42,105
GOMBE,DUKKU,"DUKKU INTERNATIONAL ACADEMY ECCDE, PRIMARY AND JSS",10.820864,10.783002,WAZIRI SOUTH,DUGGE QUARTERS,1160440001,Private Education,Urban,Regular,No,No Source of Safe Water,First Aid Kit,,No,,2020/2021,243,237,480
GOMBE,DUKKU,ALHERI ECWA NUR/PRI SCHOOL,10.812693,1173122.0,WAZIRI SOUTH,"GOMBE ROAD, DUKKU",1160440002,Private Education,Urban,Regular,No,No Source of Safe Water,No Health facility,,Yes,,2020/2021,61,51,112
GOMBE,DUKKU,NANA KHADIJA MEMORIAL SCHOOL,10816298.0,10773558.0,WAZIRI  SOUTH,TUDUN MAGAJI,1160440003,Private Education,Urban,Regular,No,No Source of Safe Water,First Aid Kit,,No,,2020/2021,160,201,361
GOMBE,DUKKU,FOMWAN PRIMARY AND JUNIOR SECONDARY SCHOOL,,,DUKKU,BALU QUATERS  DUKKU,1160440004,Private Education,Urban,Regular,No,Other,First Aid Kit,,Yes,,2020/2021,164,195,359
GOMBE,DUKKU,FLOURISH CAPITAL SCHOOL DUKKU,,,WAZIRI SOUTH,BEHIND TOWNSHIP STADIUM DUKKU,1160440005,Private Education,Urban,Regular,No,Pipe borne Water,First Aid Kit,,No,,2020/2021,28,19,47
GOMBE,DUKKU,SCHOOL FOR ARABIC AND ISLAMIC STUDIES JIBWIS,10.82064,10.768597,WAZIRI SOUTH,ALONG SHAGARI ROAD,1160440006,Private Education,Urban,Regular,No,No Source of Safe Water,First Aid Kit,,Yes,,2020/2021,0,204,204
GOMBE,DUKKU,MARKAZ SCHOOL FOR SCIENCE AND ISLAMIC STUDIES,10.820189,10.782365,DUKKU SOUTH,GENERAL HOSPITAL DUKKU,1160440007,Private Education,Urban,Regular,No,Other,First Aid Kit,,No,,2020/2021,201,229,430
GOMBE,DUKKU,DUKKU COMMUNITY SCIENCE SECONDARY SCHOOL,10.818322,10.71312,WAZIIRI SOUTH,DARAZO ROAD OPPOSITE GRA,1160440008,Private Education,Urban,Regular,No,Pipe borne Water,First Aid Kit,,No,,2020/2021,752,564,1316
GOMBE,DUKKU,FUDIYA PRIMARY AND JUNIOR SECONDARY SCHOOL,,,WAZIRI SOUTH,GONA STREET,1160440009,Private Education,Urban,Regular,No,Other,First Aid Kit,,No,,2020/2021,169,146,315
GOMBE,DUKKU,SAFEENA PRIMARY SCHOOL,10.82653,10.77365,WAZIIRI NORTH,ALONG EMIRS PALACE,1160440010,Private Education,Urban,Islamiyya integrated,No,No Source of Safe Water,First Aid Kit,,No,,2020/2021,11,14,25
GOMBE,DUKKU,DARUL ULUM UNIVERSAL SCHOOL DUKKU,10.826198,10.775988,WAZIRI NORTH,MATERNITY STREET BALU QUATERS,1160440011,Private Education,Urban,Islamiyya integrated,No,Other,First Aid Kit,,No,,2020/2021,140,128,268
GOMBE,DUKKU,KHADI AHMAD SA'ID NURSERY AND PRIMARY SCHOOL,10.826542,10.770567,WAZIRI NORTH,ALONG KALAM ROAD,1160440012,Private Education,Urban,Regular,No,No Source of Safe Water,First Aid Kit,,No,,2020/2021,45,58,103
GOMBE,DUKKU,GJSTC DUKKU,10.811523,10.781175,WAZIRI SOUTH,OPPOSITE AYU QUATERS,1160450001,Science and Vocational,Urban,Vocational Training Centre,No,Other,First Aid Kit,No,No,No,2020/2021,44,8,52
