state,lga,name_school,latitude_north,longitude_east,ward,number_and_street,code_school,name_type_sector,name_type_location,name_type_school,shift_system_y_n,name_type_water_source,name_type_health_facility,any_classes_held_outside_y_n,shared_facilities_y_n,multi_grade_y_n,name_type_year,male_enrol,female_enrol,total erlrolment
GOMBE,FUNAKAYE,BAJOGA CENTRAL PRIMARY SCHOOL,10.5114311,11.2539881,BAJOGA WEST,BAJOGA  TOWN,1160510001,Pre-Primary and Primary,Urban,Regular,Yes,No Source of Safe Water,First Aid Kit,No,Yes,No,2020/2021,1854,1173,3027
GOMBE,FUNAKAYE,BAJOGA II   SCIENCE PRIMARY SCHOOL,10.860117,11.429377,BAJOGA WEST,BAJOGA,1160510002,Pre-Primary and Primary,Urban,Regular,Yes,Borehole,First Aid Kit,No,Yes,No,2020/2021,1227,790,2017
GOMBE,FUNAKAYE,CENTRAL PRIMARY SCHOOL TONGO,10.709022,11.352277,TONGO WARD,TONGO,1160510003,Pre-Primary and Primary,Urban,Regular,No,Borehole,First Aid Kit,Yes,No,No,2020/2021,1378,579,1957
GOMBE,FUNAKAYE,SIDDIKIYO PRIMARY SCHOOL NOMADIC,10.722447,11.311688,TILDE/BODOR,SIDDIKIYO NEAR VILLAGE HEAR,1160510004,Pre-Primary and Primary,Rural,Nomadic (Migrants),No,No Source of Safe Water,No Health facility,Yes,Yes,Yes,2020/2021,90,52,142
GOMBE,FUNAKAYE,BUNGUM   PRIMARY SCHOOL,11002230.0,11425728.0,BAGE WARD BAJOGA,BUNGUM,1160510005,Pre-Primary and Primary,Rural,Regular,No,Borehole,No Health facility,No,No,No,2020/2021,205,142,347
GOMBE,FUNAKAYE,BADABDI PRIMARY SCHOOL,,,BAGE,BADABDI,1160510006,Pre-Primary and Primary,Rural,Regular,No,Borehole,First Aid Kit,No,No,No,2020/2021,279,217,496
GOMBE,FUNAKAYE,KERZIKI PRIMARY SCHOOL,11.02262,11.440732,BAGE,KERZIKI,1160510007,Pre-Primary and Primary,Rural,Regular,No,No Source of Safe Water,No Health facility,No,No,No,2020/2021,82,68,150
GOMBE,FUNAKAYE,JARKUM PRIMARY SCHOOL,10.23,11.44,JILLAHI,JARKUM,1160510008,Pre-Primary and Primary,Rural,Regular,No,No Source of Safe Water,No Health facility,No,No,No,2020/2021,62,56,118
GOMBE,FUNAKAYE,SALERI PRIMARY SCHOOL,10.462685,11.2052002,TILDE/BODOR,SALERI PATWAY,1160510009,Pre-Primary and Primary,Rural,Regular,No,No Source of Safe Water,No Health facility,Yes,No,No,2020/2021,141,117,258
GOMBE,FUNAKAYE,JUMBOR PRIMARY SCHOOL,11.014502,11.394165,BAGE,JUMBOR,1160510010,Pre-Primary and Primary,Rural,Regular,No,Well,No Health facility,Yes,No,Yes,2020/2021,126,112,238
GOMBE,FUNAKAYE,MANNARI PRIMARY SCHOOL,10.835698,11.505685,ASHAKA MAGABA,MANNARI,1160510011,Pre-Primary and Primary,Rural,Regular,No,No Source of Safe Water,Health Clinic,Yes,No,No,2020/2021,331,202,533
GOMBE,FUNAKAYE,FESHINGO  PRIMARY SCHOOL,10.915863,11.467268,BAGE WARD BAJOGA,FESHINGO,1160510012,Pre-Primary and Primary,Rural,Regular,No,No Source of Safe Water,First Aid Kit,No,No,No,2020/2021,795,480,1275
GOMBE,FUNAKAYE,JAGABARI PRIMARY SCHOOL,,,JILLAHI,JAGABARI,1160510013,Pre-Primary and Primary,Rural,Regular,No,No Source of Safe Water,No Health facility,No,No,No,2020/2021,123,109,232
GOMBE,FUNAKAYE,DAYAYI    MODEL PRIMARY SCHOOL ASHAKA,10.285146,11.172121,ASHAKA MAGABA,ALONG JALINGA BAJOGA ROAD,1160510014,Pre-Primary and Primary,Rural,Regular,No,Well,First Aid Kit,No,No,No,2020/2021,655,541,1196
GOMBE,FUNAKAYE,WURO ARSI PRIMARY SCHOOL,10.806,11.24,JILLAHI,WUROARSI,1160510015,Pre-Primary and Primary,Rural,Regular,No,No Source of Safe Water,No Health facility,No,No,No,2020/2021,24,18,42
GOMBE,FUNAKAYE,BODOR PRIMARY SCHOOL,,,TILDE/BODOR,BODOR,1160510016,Pre-Primary and Primary,Rural,Regular,No,No Source of Safe Water,No Health facility,No,No,No,2020/2021,621,326,947
GOMBE,FUNAKAYE,DANDASO  PRIMARY SCHOOL,10.4483669,11.2102768,TILDE BODOR,DANDASO,1160510017,Pre-Primary and Primary,Rural,Regular,No,No Source of Safe Water,No Health facility,Yes,No,No,2020/2021,204,94,298
GOMBE,FUNAKAYE,GIRL CHILD  PRIMARY SCHOOL BAJOGA,10.513,11.2555,BAJOGA WEST,DANJAJO STREET  ALONG TIKE ROARD BAJOGA,1160510018,Pre-Primary and Primary,Urban,Regular,No,No Source of Safe Water,First Aid Kit,No,No,No,2020/2021,0,2042,2042
GOMBE,FUNAKAYE,MARGAMANI   PRIMARY SCHOOL,,,JILLAHI,MARGAMANI,1160510019,Pre-Primary and Primary,Rural,Regular,No,Borehole,No Health facility,Yes,No,Yes,2020/2021,104,146,250
GOMBE,FUNAKAYE,KARI WAWA NOMADIC PRIMARY SCHOOL,10.75227,11.437429,WAWA WAKALTU,KARIWAWA,1160510020,Pre-Primary and Primary,Rural,Nomadic (Migrants),No,No Source of Safe Water,No Health facility,Yes,No,No,2020/2021,82,86,168
GOMBE,FUNAKAYE,MANAWASHI. ASHAKA PRIMARY SCHOOL,10.847327,11.523902,ASHAKA MAGABA,MANAWASHI,1160510021,Pre-Primary and Primary,Rural,Regular,No,No Source of Safe Water,No Health facility,Yes,No,No,2020/2021,361,228,589
GOMBE,FUNAKAYE,GARIN DOGO   PRIMARY SCHOOL,10.459,11.29,RIBADU,GARIN DOGO,1160510022,Pre-Primary and Primary,Rural,Regular,No,Borehole,No Health facility,No,No,No,2020/2021,125,30,155
GOMBE,FUNAKAYE,DARUMFA PRIMARY SCHOOL,10.900986,11.417559,BAGE,DARUMFA,1160510023,Pre-Primary and Primary,Rural,Regular,Yes,No Source of Safe Water,First Aid Kit,Yes,Yes,No,2020/2021,887,817,1704
GOMBE,FUNAKAYE,KOMI BOLEWA   PRIMARY SCHOOL,10.53841,11.02928,WAWA WAKALTU,KOMI BOLEWA,1160510024,Pre-Primary and Primary,Rural,Regular,No,No Source of Safe Water,No Health facility,No,No,Yes,2020/2021,174,122,296
GOMBE,FUNAKAYE,KAFIWOL PRIMARY SCHOOL,10.992005,11.436252,BAGE WARD BAJOGA,KAFIWOL,1160510025,Pre-Primary and Primary,Rural,Regular,No,No Source of Safe Water,First Aid Kit,Yes,Yes,No,2020/2021,261,86,347
GOMBE,FUNAKAYE,WAWA PRIMARY SCHOOL,10.79379,11.12455,WAWA WAKALTU,WAWA,1160510026,Pre-Primary and Primary,Rural,Regular,No,No Source of Safe Water,First Aid Kit,No,No,No,2020/2021,467,254,721
GOMBE,FUNAKAYE,JILLAHI   PRIMARY SCHOOL,10.46494,11.2411618,JILLAHI,JILLAHI,1160510027,Pre-Primary and Primary,Rural,Regular,No,No Source of Safe Water,No Health facility,Yes,No,No,2020/2021,274,196,470
GOMBE,FUNAKAYE,NAYINAWA   PRIMARY SCHOOL,11.009168,11.440793,,NAYINAWA,1160510028,Pre-Primary and Primary,Rural,Regular,No,Other,First Aid Kit,Yes,No,Yes,2020/2021,86,66,152
GOMBE,FUNAKAYE,ASHAKA GARI PRIMARY SCHOOL,,,ASHAKA MAGABA,ASHAKA GARI,1160510029,Pre-Primary and Primary,Rural,Regular,No,No Source of Safe Water,First Aid Kit,No,No,No,2020/2021,549,338,887
GOMBE,FUNAKAYE,SAN GARU  PRIMARY SCHOOL,10.848,11.444,BAJOGA EAST,SARKIN SAN GARU,1160510030,Pre-Primary and Primary,Rural,Regular,No,No Source of Safe Water,First Aid Kit,No,No,No,2020/2021,2513,2262,4775
GOMBE,FUNAKAYE,JALINGO PRIMARY   SCHOOL,10.914563,11.472417,BAGE,JALINGO,1160510031,Pre-Primary and Primary,Rural,Regular,No,Borehole,First Aid Kit,Yes,Yes,No,2020/2021,2558,1650,4208
GOMBE,FUNAKAYE,GADAKKA  PRIMARY SCHOOL,10.64,11.354,RIBADU,NEAR VILLAGE HEAD RESIDENCE,1160510032,Pre-Primary and Primary,Rural,Regular,No,No Source of Safe Water,No Health facility,No,No,No,2020/2021,65,50,115
GOMBE,FUNAKAYE,BULA GAIDAM PRIMARY SCHOOL,,,ASHAKA MAGABA,BULAGAIDAM,1160510033,Pre-Primary and Primary,Rural,Regular,No,No Source of Safe Water,First Aid Kit,Yes,No,Yes,2020/2021,170,188,358
GOMBE,FUNAKAYE,RIBADU PRIMARY SCHOOL,10.650195,11.332506,RIBADU,RIBADU,1160510034,Pre-Primary and Primary,Rural,Regular,No,Borehole,First Aid Kit,No,No,No,2020/2021,246,196,442
GOMBE,FUNAKAYE,GARIN ALKALI   PRIMARY SCHOOL,10.5509848,11.223020052,WAWA,GARIN ALKALI,1160510035,Pre-Primary and Primary,Rural,Regular,No,Well,No Health facility,Yes,No,Yes,2020/2021,239,132,371
GOMBE,FUNAKAYE,WAKKALTU PRIMARY SCHOOL,10.48735408,11.214725828,WAWA,WAKKALTU,1160510036,Pre-Primary and Primary,Rural,Regular,No,No Source of Safe Water,No Health facility,Yes,No,No,2020/2021,210,153,363
GOMBE,FUNAKAYE,ZAGAINA   PRIMARY SCHOOL BAJOGA,10.51222,11.232433,BAJOGA WEST,ZAGAINA,1160510037,Pre-Primary and Primary,Rural,Regular,No,Other,No Health facility,Yes,No,Yes,2020/2021,96,94,190
GOMBE,FUNAKAYE,SHERFURI    PRIMARY SCHOOL,10.5044275,11.2355353,BAJOGA WEST,BEHIND FEDERAL GOVERNMENT COLLEGE,1160510038,Pre-Primary and Primary,Rural,Regular,No,Well,No Health facility,No,No,No,2020/2021,139,71,210
GOMBE,FUNAKAYE,ZADAWA  PRIMARY SCHOOL BAJOGA,10.879303,11.391363,BAJOGA WEST,ZADAWA VILLAGE BAJOGA,1160510039,Pre-Primary and Primary,Rural,Regular,No,No Source of Safe Water,No Health facility,Yes,No,No,2020/2021,90,110,200
GOMBE,FUNAKAYE,GALDIMARI   PRIMARY SCHOOL BAJOGA WEST,10.86221,11.411508,BAJOGA WEST,GALDIMARI,1160510041,Pre-Primary and Primary,Rural,Regular,No,Well,No Health facility,No,No,No,2020/2021,226,212,438
GOMBE,FUNAKAYE,GARIN ALMAKASHI  NOMADIC PRIMARY SCHOOL,,,KUPTO,G/ALMAKASHI,1160510042,Pre-Primary and Primary,Rural,Nomadic (Migrants),No,No Source of Safe Water,First Aid Kit,Yes,No,No,2020/2021,220,140,360
GOMBE,FUNAKAYE,WURO NAREJE PRIMARY SCHOOL,10.72676,11.29855,TILDE BODOR,WURO NAREJE,1160510043,Pre-Primary and Primary,Rural,Regular,No,No Source of Safe Water,First Aid Kit,Yes,No,No,2020/2021,205,131,336
GOMBE,FUNAKAYE,DANISKI   PRIMARY SCHOOL,10.305811,11.248067,KUPTO,DANISKI,1160510044,Pre-Primary and Primary,Rural,Regular,No,No Source of Safe Water,No Health facility,No,No,No,2020/2021,65,85,150
GOMBE,FUNAKAYE,SISBAKO  PRIMARY SCHOOL,10.726588,11.394177,TONGO WARD,SISBAKO,1160510045,Pre-Primary and Primary,Rural,Regular,No,No Source of Safe Water,No Health facility,Yes,No,No,2020/2021,308,277,585
GOMBE,FUNAKAYE,GONGILA   PRIMARY SCHOOL,10.96462,11.467076,BAGE,GONGILA,1160510046,Pre-Primary and Primary,Rural,Regular,No,No Source of Safe Water,No Health facility,Yes,No,Yes,2020/2021,130,101,231
GOMBE,FUNAKAYE,KWAYAYA   PRIMARY SCHOOL,11.018032,11.413728,BAGE,KWAYAY,1160510047,Pre-Primary and Primary,Rural,Regular,No,No Source of Safe Water,No Health facility,Yes,No,No,2020/2021,87,110,197
GOMBE,FUNAKAYE,FESHINGO  YERIMA MUSA PRIMARY SCHOOL,10.96,11.46,BAGE WARD BAJOGA,FESHINGO,1160510049,Pre-Primary and Primary,Rural,Regular,No,No Source of Safe Water,No Health facility,No,No,No,2020/2021,132,81,213
GOMBE,FUNAKAYE,GUBE  PRIMARY SCHOOL,11.08553,11.393583,BAGE WARD BAJOGA,GUBE,1160510050,Pre-Primary and Primary,Rural,Regular,No,Borehole,No Health facility,No,Yes,Yes,2020/2021,93,99,192
GOMBE,FUNAKAYE,DINDI PRIMARY SCHOOL,11.014612,11.378915,BAGE WARD BAJOGA,DINDI,1160510051,Pre-Primary and Primary,Rural,Regular,No,No Source of Safe Water,No Health facility,,No,Yes,2020/2021,56,52,108
GOMBE,FUNAKAYE,WUROHAIRE PRIMARY SCHOOL,10.979287,11.383483,BAGE,W/HAIRE,1160510053,Pre-Primary and Primary,Rural,Regular,No,No Source of Safe Water,No Health facility,No,No,Yes,2020/2021,89,73,162
GOMBE,FUNAKAYE,JAURO BELLO PRIMARY SCHOOL,,,BAGE,GARIN JAURO BELLO,1160510054,Pre-Primary and Primary,Rural,Regular,No,No Source of Safe Water,No Health facility,No,No,No,2020/2021,59,54,113
GOMBE,FUNAKAYE,MANAWASHI PRIMARY SCHOOL  (B),10.08346,11.35179,BAGE,MANAWASHI,1160510055,Pre-Primary and Primary,Rural,Regular,No,No Source of Safe Water,No Health facility,Yes,No,Yes,2020/2021,175,108,283
GOMBE,FUNAKAYE,WURO DOLE PRIMARY SCHOOL,,,BAGE,W/DOLE,1160510056,Pre-Primary and Primary,Rural,Regular,No,No Source of Safe Water,No Health facility,Yes,No,Yes,2020/2021,172,121,293
GOMBE,FUNAKAYE,NGELTANNI  PRIMARY SCHOOL,10.88568,11.43124,BAGE,NGELTANNI,1160510058,Pre-Primary and Primary,Rural,Regular,No,No Source of Safe Water,No Health facility,Yes,No,Yes,2020/2021,232,148,380
GOMBE,FUNAKAYE,WURO YAYARU,10.84954,11.44074,BAGE,WURO YAYARU,1160510059,Pre-Primary and Primary,Rural,Regular,No,No Source of Safe Water,First Aid Kit,No,No,No,2020/2021,416,270,686
GOMBE,FUNAKAYE,WURO RAJAH PRIMARY SCHOOL,,,ASHAKA MAGABA,WURO RAJAH,1160510060,Pre-Primary and Primary,Rural,Regular,No,Well,No Health facility,No,No,No,2020/2021,181,75,256
GOMBE,FUNAKAYE,SABON GARI MAJAH PRIMARY SCHOOL,10.92,11.47,BAGE WARD BAJOGA,OFF ASHAKA ROAD,1160510061,Pre-Primary and Primary,Rural,Regular,No,No Source of Safe Water,First Aid Kit,No,No,No,2020/2021,130,115,245
GOMBE,FUNAKAYE,WURO BAPPAHRU PRIMARY SCHOOL,10.8402,11.35261,BAGE WARD BAJOGA,W/BAPPARU,1160510062,Pre-Primary and Primary,Rural,Regular,No,No Source of Safe Water,First Aid Kit,Yes,No,No,2020/2021,240,61,301
GOMBE,FUNAKAYE,KUKA BAKWAI   PRIMARY SCHOOL,10.683155,11.368375,KUPTO,KUKA BAKWAI,1160510063,Pre-Primary and Primary,Rural,Regular,No,No Source of Safe Water,No Health facility,No,No,No,2020/2021,78,70,148
GOMBE,FUNAKAYE,MUTUKE,,,JILLAHI,MUTUKE,1160510064,Pre-Primary and Primary,Rural,Regular,No,No Source of Safe Water,No Health facility,Yes,No,No,2020/2021,74,72,146
GOMBE,FUNAKAYE,JAJAMI   PRIMARY SCHOOL,10.9273394,11.47268,BAJOGA EAST,JAJAMI    ALONG ASHAKA JALINGO ROAD,1160510065,Pre-Primary and Primary,Rural,Regular,No,No Source of Safe Water,No Health facility,Yes,No,No,2020/2021,280,157,437
GOMBE,FUNAKAYE,HAMMA KOLORI   PRIMARY SCHOOL,10.858346,11.431397,BAGE,HAMMA KOLORI  ALONG JALINGO DAYAYA ROAD,1160510066,Pre-Primary and Primary,Rural,Regular,No,Well,First Aid Kit,No,No,No,2020/2021,67,79,146
GOMBE,FUNAKAYE,JAURO MALUM PRIMARY SCHOOL,,,BAJOGA EAST,JAURO MALUM,1160510067,Pre-Primary and Primary,Rural,Regular,No,No Source of Safe Water,No Health facility,No,No,No,2020/2021,201,180,381
GOMBE,FUNAKAYE,KADEMI PRIMARY SCHOOL,10.919605,11.372106,ASHAKA MAGABA,KADEMI,1160510068,Pre-Primary and Primary,Rural,Regular,No,Well,No Health facility,No,No,No,2020/2021,120,87,207
GOMBE,FUNAKAYE,FUFAJAMNA,10.900303,11.3777701,ASHAKA/ MAGABA,FUFAJAMNA,1160510069,Pre-Primary and Primary,Rural,Regular,No,Borehole,No Health facility,,No,No,2020/2021,112,70,182
GOMBE,FUNAKAYE,MABANI   PRIMARY SCHOOL,10.915539,11.363911,ASHAKA MAGABA,MABANI,1160510070,Pre-Primary and Primary,Rural,Regular,No,No Source of Safe Water,No Health facility,No,No,No,2020/2021,147,131,278
GOMBE,FUNAKAYE,WURO GALDE   PRIMARY SCHOOL,10.907788,11.351169,ASHAKA MAGABA,WURO GALDE,1160510071,Pre-Primary and Primary,Rural,Regular,No,No Source of Safe Water,No Health facility,Yes,No,No,2020/2021,60,54,114
GOMBE,FUNAKAYE,JUGGOL BORKONO  PRIMARY SCHOOL,,,BAGE WARD BAJOGA,JUGGOL BORKONO,1160510072,Pre-Primary and Primary,Rural,Regular,No,No Source of Safe Water,No Health facility,Yes,No,No,2020/2021,216,115,331
GOMBE,FUNAKAYE,BAGE  PILOT PRIMARY SCHOOL,10.950621,11.3833,BAGE,UNGUWAR TAFIDA BAGE,1160510073,Pre-Primary and Primary,Rural,Regular,No,No Source of Safe Water,First Aid Kit,No,No,No,2020/2021,311,322,633
GOMBE,FUNAKAYE,BAGE II PRIMARY SCHOOL,10.948663,11.388011,BAGE,BAGE    SOUTH,1160510074,Pre-Primary and Primary,Rural,Regular,No,No Source of Safe Water,First Aid Kit,Yes,Yes,Yes,2020/2021,212,172,384
GOMBE,FUNAKAYE,GERENGI PRIMARY SCHOOL,10.454899,11.2153293,TONGO WARD,GERENGI,1160510075,Pre-Primary and Primary,Rural,Regular,No,No Source of Safe Water,No Health facility,Yes,No,No,2020/2021,101,45,146
GOMBE,FUNAKAYE,GADARI PRIMARY SCHOOL,10742776.0,11386625.0,TONGO WARD,GADARI,1160510076,Pre-Primary and Primary,Rural,Regular,No,No Source of Safe Water,No Health facility,Yes,No,No,2020/2021,143,133,276
GOMBE,FUNAKAYE,YARDA PRIMARY SCHOOL,10.701882,11.410542,TONGO WARD,YARDA NEAR TONGO RAOD,1160510077,Pre-Primary and Primary,Rural,Regular,No,No Source of Safe Water,No Health facility,Yes,No,No,2020/2021,146,41,187
GOMBE,FUNAKAYE,NJOLKATARI   PRIMARY SCHOOL,10.70191,11.407502,TONGO WARD,NJOLKATARI,1160510078,Pre-Primary and Primary,Rural,Regular,No,No Source of Safe Water,No Health facility,No,No,No,2020/2021,167,53,220
GOMBE,FUNAKAYE,GUIWA PRI. SCH.,,,RIBADU,NEAR VILLAGE HEAD PALACE,1160510079,Pre-Primary and Primary,Rural,Regular,No,No Source of Safe Water,No Health facility,Yes,No,No,2020/2021,208,126,334
GOMBE,FUNAKAYE,ABUJA GWUIWA NOMADIC,10.55645,11.257071,RIBADU,NEAR MATERNITY,1160510080,Pre-Primary and Primary,Rural,Regular,No,Well,No Health facility,Yes,No,No,2020/2021,168,158,326
GOMBE,FUNAKAYE,WURO JABE,10.683155,11.381253,RIBADU,WURO JABE,1160510081,Pre-Primary and Primary,Rural,Regular,No,No Source of Safe Water,No Health facility,No,No,No,2020/2021,47,30,77
GOMBE,FUNAKAYE,JANGADE  PRIMARY SCHOOL,10.294547,11.166252,KUPTO,JANGADE,1160510082,Pre-Primary and Primary,Rural,Regular,No,No Source of Safe Water,No Health facility,No,No,Yes,2020/2021,272,181,453
GOMBE,FUNAKAYE,DAN GALADIMA,,,KUPTO,DAN GALADIMA,1160510083,Pre-Primary and Primary,Rural,Nomadic (Migrants),No,No Source of Safe Water,No Health facility,No,No,No,2020/2021,115,94,209
GOMBE,FUNAKAYE,KUPTO    PRIMARY SCHOOL,10.696704,11.484015,KUPTO,NEAR DISTRICT HEAD RESIDENCE,1160510084,Pre-Primary and Primary,Rural,Regular,No,No Source of Safe Water,No Health facility,No,Yes,Yes,2020/2021,406,309,715
GOMBE,FUNAKAYE,DUBBEL   PRIMARY SCHOOL,10.815,11.48,JILLAHI,DUBBEL,1160510085,Pre-Primary and Primary,Rural,Regular,No,No Source of Safe Water,No Health facility,No,No,No,2020/2021,179,160,339
GOMBE,FUNAKAYE,MAGABA  PRIMARY SCHOOL,10.5235508,11.21114376,ASHAKA MAGABA,MAGABA,1160510086,Pre-Primary and Primary,Rural,Regular,No,No Source of Safe Water,No Health facility,No,No,No,2020/2021,171,159,330
GOMBE,FUNAKAYE,BUSUM  PRIMARY SCHOOL,,,JILLAHI,BUSUM,1160510087,Pre-Primary and Primary,Rural,Regular,No,Other,No Health facility,No,No,Yes,2020/2021,64,80,144
GOMBE,FUNAKAYE,TONGO  11 PRIMARY SCHOOL,10.71191,11.367437,TONGO WARD,TONGO   POTISKUM ROAD,1160510088,Pre-Primary and Primary,Rural,Regular,No,No Source of Safe Water,No Health facility,Yes,No,No,2020/2021,536,316,852
GOMBE,FUNAKAYE,GARIN WAKILI PRIMARY SCHOOL,10.636722,11.354342,RIBADU,G/WAKILI,1160510089,Pre-Primary and Primary,Rural,Regular,No,No Source of Safe Water,First Aid Kit,No,Yes,No,2020/2021,165,78,243
GOMBE,FUNAKAYE,WURO YOLDE PRIMARY SCHOOL,10.229642,11.433557,RIBADU,W/YOLDE,1160510090,Pre-Primary and Primary,Rural,Regular,No,No Source of Safe Water,No Health facility,No,No,Yes,2020/2021,61,61,122
GOMBE,FUNAKAYE,MODEL PRIMARY SCHOOL  BAJOGA,10.860477,11.432285,BAJOGA WEST,UNGUWAN BAZARMA,1160510091,Pre-Primary and Primary,Urban,Regular,No,Borehole,First Aid Kit,No,Yes,No,2020/2021,1239,1017,2256
GOMBE,FUNAKAYE,RUGGAI PRIMARY SCHOOL,10.821,11.408,JILLAHI,UNGUWAN WAKILI,1160510092,Pre-Primary and Primary,Rural,Regular,No,No Source of Safe Water,No Health facility,Yes,No,No,2020/2021,153,116,269
GOMBE,FUNAKAYE,BAJOGA SOUTH PRIMARY   SCHOOL,10.843,11.431,BAJOGA WEST,ALONG GOMBE POTISKUM ROAD BEHIND BULASAWA PETROL STATION,1160510093,Pre-Primary and Primary,Urban,Regular,No,Other,First Aid Kit,No,Yes,No,2020/2021,1399,1026,2425
GOMBE,FUNAKAYE,GAGURUM PRIMARY SCHOOL,10.99526,11.33523,BAGE WARD BAJOGA,NAFADA ROAD,1160510094,Pre-Primary and Primary,Rural,Regular,No,No Source of Safe Water,No Health facility,Yes,No,No,2020/2021,127,99,226
GOMBE,FUNAKAYE,NGARAI PRIMARY SCHOOL,,,RIBADU,NGARAI,1160510096,Pre-Primary and Primary,Rural,Regular,No,No Source of Safe Water,No Health facility,Yes,No,No,2020/2021,103,36,139
GOMBE,FUNAKAYE,WINDE SAADU PRIMARY SCHOOL,10.294496,11.166262,KUPTO,WINDE SAADU,1160510097,Pre-Primary and Primary,Rural,Regular,No,No Source of Safe Water,No Health facility,No,No,Yes,2020/2021,122,139,261
GOMBE,FUNAKAYE,TILDE PRIMARY SCHOOL,10.4246738,11.2050283,TILDE/BODOR,UNGUWAR TAFIDA TILDE,1160510098,Pre-Primary and Primary,Rural,Regular,No,No Source of Safe Water,No Health facility,Yes,No,No,2020/2021,1304,372,1676
GOMBE,FUNAKAYE,JAURO YUGUDA PRIMARY SCHOOL,,,BAJOGA EAST,JAURO YUGUDA,1160510099,Pre-Primary and Primary,Rural,Regular,No,No Source of Safe Water,No Health facility,Yes,No,No,2020/2021,119,103,222
GOMBE,FUNAKAYE,ALMAJIRI SCHOOL,10.512365057,11.253896364,BAJOGA WEST,TIKE ROAD BAJOGA,1160510102,Pre-Primary and Primary,Urban,Islamiyya integrated,No,Borehole,Health Clinic,Yes,No,No,2020/2021,208,200,408
GOMBE,FUNAKAYE,WURO YAYATI PRIMARY SCHOOL,11.005085,11.397642,BAGE,YAYATI,1160510103,Pre-Primary and Primary,Rural,Regular,No,No Source of Safe Water,No Health facility,Yes,No,Yes,2020/2021,118,55,173
GOMBE,FUNAKAYE,WALKERE NORMADIC PRIMARY SCHOOL,11.068007,11.404617,BAGE,WALKERE,1160510104,Pre-Primary and Primary,Rural,Nomadic (Migrants),No,No Source of Safe Water,First Aid Kit,Yes,No,Yes,2020/2021,147,92,239
GOMBE,FUNAKAYE,MAZA MALAM MADU PRIMARY SCHOOL,,,ASHAKA MAGABA,MAZA MALAM MADU NEAR ASHAKA,1160510105,Pre-Primary and Primary,Rural,Regular,No,No Source of Safe Water,No Health facility,Yes,No,No,2020/2021,142,103,245
GOMBE,FUNAKAYE,BODORIYEL PRIMARY SCHOOL,10.841,11.436,BAJOGA EAST,BODORIYEL,1160510106,Pre-Primary and Primary,Rural,Regular,No,No Source of Safe Water,No Health facility,Yes,No,No,2020/2021,253,330,583
GOMBE,FUNAKAYE,JAJIRMARI ARY SCHOOL,9.5211732,11.23567006,,JAJIRMARI,1160510108,Pre-Primary and Primary,Rural,Regular,No,No Source of Safe Water,No Health facility,,No,Yes,2020/2021,108,113,221
GOMBE,FUNAKAYE,GARDAWASHI PRIMARY SCHOOL,10.978115,11.402845,BAGE,GARDAWASHI,1160510109,Pre-Primary and Primary,Rural,Regular,No,No Source of Safe Water,No Health facility,No,No,Yes,2020/2021,72,28,100
GOMBE,FUNAKAYE,BELLO TINGABU PRIMARY SCHOOL,10.6051011,11.363863,TONGO,ANGUWAN TINGABU NEAR MODIBBO BUBA HOUSE,1160510110,Pre-Primary and Primary,Rural,Regular,No,Borehole,No Health facility,No,No,No,2020/2021,142,191,333
GOMBE,FUNAKAYE,ABUKU PRIMARY SCHOOL,10.453015,11.243353,RIBADU,ALONG RIBADU ABUKU BILLA GUIWA,1160510111,Pre-Primary and Primary,Rural,Regular,No,Well,First Aid Kit,,No,No,2020/2021,156,109,265
GOMBE,FUNAKAYE,GOJONGORI PRIMARY SCHOOL,10.331198,11.263392,KUPTO,GOJONGORI,1160510112,Pre-Primary and Primary,Rural,Regular,No,No Source of Safe Water,No Health facility,No,No,No,2020/2021,47,50,97
GOMBE,FUNAKAYE,GARIN MALAM BELLO PRIMARY SCHOOL,,,WAWA WAKKALTU,GARIN MALAM BELLO,1160510113,Pre-Primary and Primary,Rural,Regular,No,No Source of Safe Water,No Health facility,No,No,Yes,2020/2021,70,69,139
GOMBE,FUNAKAYE,WURO DUWO PRIMARY SCHOOL,10.916037,11.352982,BAGE,WURO DUWO KOFAR JAURO,1160510114,Pre-Primary and Primary,Rural,Regular,No,No Source of Safe Water,No Health facility,Yes,Yes,Yes,2020/2021,19,11,30
GOMBE,FUNAKAYE,WURO BUHARI PRIMARY SCHOOL,10.54823244,11.235826408,MAGABA,MAGABA ROAD,1160510115,Pre-Primary and Primary,Rural,Regular,No,No Source of Safe Water,No Health facility,Yes,No,Yes,2020/2021,260,296,556
GOMBE,FUNAKAYE,WURO NAI PRIMARY SCHOOL,10.925717,11.36522,BAGE,WURO NAI,1160510116,Pre-Primary and Primary,Rural,Regular,No,No Source of Safe Water,No Health facility,Yes,No,Yes,2020/2021,61,39,100
GOMBE,FUNAKAYE,JOGGOL BATTAH PRIMARY SCHOOL,10.880037,11.4906665,ASHAKA MAGABA,RAILWAY ROAD ASHAKA GARI TO BAJOGA,1160510117,Pre-Primary and Primary,Rural,Regular,No,No Source of Safe Water,No Health facility,,No,No,2020/2021,47,38,85
GOMBE,FUNAKAYE,BOGGGAWO PRI SCH,10892597.0,11241001.0,BAGE,BOGGAWO,1160510118,Pre-Primary and Primary,Rural,Regular,No,No Source of Safe Water,First Aid Kit,No,No,No,2020/2021,142,164,306
GOMBE,FUNAKAYE,KAMI KUFAYI NOMADIC PRIMARY SCHOOL,10.50361,11.0686,WAWA WAKKALTU,KAMI KUFAYI,1160510119,Pre-Primary and Primary,Rural,Nomadic (Migrants),No,No Source of Safe Water,No Health facility,Yes,No,Yes,2020/2021,62,54,116
GOMBE,FUNAKAYE,GARIN ABA PRIMARY SCHOOL,10.855,11.47,BAJOGA,GARIN ABA,1160510120,Pre-Primary and Primary,Rural,Regular,No,No Source of Safe Water,No Health facility,Yes,No,No,2020/2021,55,105,160
GOMBE,FUNAKAYE,BAJOGA EAST PRIMARY SCHOOL,10.851,11.442,BAJOGA EAST,MAI ANGUWA HARAMJI,1160510121,Pre-Primary and Primary,Rural,Regular,No,No Source of Safe Water,No Health facility,Yes,No,Yes,2020/2021,88,78,166
GOMBE,FUNAKAYE,DANKARUNA PRIMARY SCHOOL,10.636073,11.370067,RIBADU,DANKARUNA NEAR JAURO HOUSE,1160510122,Pre-Primary and Primary,Rural,Regular,No,No Source of Safe Water,No Health facility,Yes,No,No,2020/2021,188,137,325
GOMBE,FUNAKAYE,JAURO MUSA PRIMARY SCHOOL,,,JILLAHI,JAURO MUSA,1160510123,Pre-Primary and Primary,Rural,Regular,No,No Source of Safe Water,No Health facility,No,No,No,2020/2021,358,284,642
GOMBE,FUNAKAYE,KAGANARI PRIMARY SCHOOL,10.5059533,11.2724897,JILLAHI,KAGANARI,1160510124,Pre-Primary and Primary,Rural,Regular,No,No Source of Safe Water,No Health facility,Yes,No,No,2020/2021,86,94,180
GOMBE,FUNAKAYE,WURO ARDO PRIMARY SCHOOL,10.98463,11.435033,BAGE,WURO ARDO,1160510125,Pre-Primary and Primary,Rural,Regular,No,No Source of Safe Water,No Health facility,,No,No,2020/2021,115,75,190
GOMBE,FUNAKAYE,MAZAYEL PRIMARY SCHOOL,10.91929,11.474893,ASHAKA MAGABA,MAZAYEL,1160510126,Pre-Primary and Primary,Rural,Regular,No,No Source of Safe Water,No Health facility,Yes,No,No,2020/2021,93,165,258
GOMBE,FUNAKAYE,ALHERI PRIMARY SCHOOL,10.91432,11.47928,ASHAKA MAGABA,UNGUWAN ALHERI,1160510127,Pre-Primary and Primary,Rural,Regular,No,No Source of Safe Water,No Health facility,Yes,No,Yes,2020/2021,63,58,121
GOMBE,FUNAKAYE,MUTUKIYEL PRIMARY SCHOOL,,,ASHAKA MAGABA,UNGUWAR FADA AREWA DA GIDAN JAURO MUTUKIYEL,1160510128,Pre-Primary and Primary,Rural,Regular,No,No Source of Safe Water,No Health facility,No,No,No,2020/2021,119,76,195
GOMBE,FUNAKAYE,DAWAMAKE PRIMARY SCHOOL,,,TONGO,DAWAMAKE,1160510129,Pre-Primary and Primary,Rural,Nomadic (Migrants),No,No Source of Safe Water,No Health facility,No,No,No,2020/2021,199,169,368
GOMBE,FUNAKAYE,WURO BOKKI PRIMARY SCHOOL,,,BAGE,WURO BOKKI,1160510130,Pre-Primary and Primary,Rural,Regular,No,Borehole,No Health facility,No,No,Yes,2020/2021,100,83,183
GOMBE,FUNAKAYE,WAWA SOUTH PRIMARY SCHOOL,10.7945,11.12455,WAWA WAKKALTU,ALONG DUKKU ROAD,1160510131,Pre-Primary and Primary,Rural,Regular,No,No Source of Safe Water,No Health facility,No,Yes,No,2020/2021,28,23,51
GOMBE,FUNAKAYE,GANDU PRIMARY SCHOOL BAJOGA,10.86132,11.445483,BAJOGA EAST,BEHIND LOCAL GOV'T SECRETARIAT FUNAKAYE,1160510132,Pre-Primary and Primary,Urban,Regular,No,Borehole,First Aid Kit,No,No,Yes,2020/2021,422,417,839
GOMBE,FUNAKAYE,WURO BOGGA PRIMARY SCHOOL,11.00107,11.44852,BAGE,WURO BOGGA,1160510133,Pre-Primary and Primary,Rural,Regular,No,No Source of Safe Water,No Health facility,,No,Yes,2020/2021,56,28,84
GOMBE,FUNAKAYE,BILLA PRIMARY SCHOOL,10.545693,11.325789,RIBADU,BILLA,1160510134,Pre-Primary and Primary,Rural,Regular,No,Well,No Health facility,No,No,Yes,2020/2021,80,40,120
GOMBE,FUNAKAYE,SABON GARI PRIMARY SCHOOL,10.918027,11.477659,BAGE,SABON GARI,1160510135,Pre-Primary and Primary,Rural,Regular,No,No Source of Safe Water,No Health facility,No,No,Yes,2020/2021,139,112,251
GOMBE,FUNAKAYE,DANEJAM NOMADIC PRIMARY SCHOOL,10.453701,11.263252,RIBADU,ALONG RIBADU ABUKU ABUJA JAURO JIBIR FOOT PASS,1160510136,Pre-Primary and Primary,Urban,Nomadic (Migrants),No,No Source of Safe Water,No Health facility,Yes,No,No,2020/2021,121,112,233
GOMBE,FUNAKAYE,EARLY CHILD CARE DEVELOPMENT EDUCATION,10.860782,11.429885,BAJOGA EAST,BAJOGA,1160510137,Pre-Primary and Primary,Urban,Regular,No,No Source of Safe Water,First Aid Kit,Yes,No,No,2020/2021,315,310,625
GOMBE,FUNAKAYE,BOGGARABO PRIMARY SCHOOL,10.5123760664,11.231326912,BAJOGA WEST,ALONG MAGABA ROAD,1160510138,Pre-Primary and Primary,Rural,Regular,No,No Source of Safe Water,No Health facility,Yes,No,No,2020/2021,161,118,279
GOMBE,FUNAKAYE,SHISHI JAURO SAIDU PRIMARY SCHOOL,10.9884,11.44552,BAGE,SHISHI,1160510139,Pre-Primary and Primary,Rural,Regular,No,No Source of Safe Water,No Health facility,Yes,No,No,2020/2021,42,31,73
GOMBE,FUNAKAYE,GARIN BURA PRIMARY SCHOOL,10.54517,11.335489,RIBADU,ALONG RIBADU GUIWA ROAD,1160510140,Pre-Primary and Primary,Rural,Regular,No,No Source of Safe Water,No Health facility,,No,No,2020/2021,104,70,174
GOMBE,FUNAKAYE,MAIDUKURI PRIMARY SCHOOL,10.5196529,11.2599955,BAJOGA EAST,OLD JUDGE SITE BAJUGA,1160510141,Pre-Primary and Primary,Rural,Regular,No,No Source of Safe Water,No Health facility,No,No,Yes,2020/2021,121,180,301
GOMBE,FUNAKAYE,TIKE PRIMARY SCHOOL,10.5044515,11.2541667,BAJOGA WEST,FGGC BAJOGA,1160510142,Pre-Primary and Primary,Rural,Regular,No,No Source of Safe Water,No Health facility,Yes,No,No,2020/2021,37,90,127
GOMBE,FUNAKAYE,WURO BIRIJI PRIMARY SCHOOL,11.006652,11.367522,BAGE,ALONG BAJOGA ROAD,1160510143,Pre-Primary and Primary,Rural,Regular,No,Well,No Health facility,,No,No,2020/2021,74,96,170
GOMBE,FUNAKAYE,SHUWARI J. GIDA PRIMARY SCHOOL,10.995702,11.36865,BAJOGA,BAJOGA SHUWARI J. GIDA,1160510144,Pre-Primary and Primary,Rural,Regular,No,No Source of Safe Water,No Health facility,,No,Yes,2020/2021,76,58,134
GOMBE,FUNAKAYE,SABON LAYI BADABDI PRIMARY SCHOOL,,,BAGE,SABON LAYI BADABDI,1160510145,Pre-Primary and Primary,Rural,Regular,No,No Source of Safe Water,No Health facility,Yes,No,Yes,2020/2021,35,14,49
GOMBE,FUNAKAYE,KUDU MUNDU NOMADIC PRIMARY SCHOOL,11.034437,11.420017,BAGE,KUDU MUNDU,1160510146,Pre-Primary and Primary,Rural,Regular,No,No Source of Safe Water,First Aid Kit,Yes,No,Yes,2020/2021,48,32,80
GOMBE,FUNAKAYE,SADDIKIYO PRIMARY SCHOOL,10.4543014,11.2156557,TILDE,SIDDIKIYO NEAR TILDE TOWN,1160510147,Pre-Primary and Primary,Rural,Regular,No,No Source of Safe Water,No Health facility,Yes,No,No,2020/2021,152,76,228
GOMBE,FUNAKAYE,G JSS RIBADU,10.651506,11.334421,RIBADU,NEAR RIBADU PRIMARY SCHOOL,1160520001,Junior Secondary,Rural,Regular,No,Borehole,First Aid Kit,No,No,No,2020/2021,102,35,137
GOMBE,FUNAKAYE,GJSS SANGARU,,,BAJOGA EAST,SARKIN SANGARU STREET,1160520002,Junior Secondary,Urban,Regular,No,No Source of Safe Water,First Aid Kit,No,No,Yes,2020/2021,195,141,336
GOMBE,FUNAKAYE,GJSS BADABDI,10.958,11.422,BAGE,BIHIND ESTATE ASHAKA COMPANY,1160520003,Junior Secondary,Rural,Regular,No,Borehole,No Health facility,No,Yes,Yes,2020/2021,62,48,110
GOMBE,FUNAKAYE,GJSS KUPTO,10.294623,11.166206,KUPTO,,1160520004,Junior Secondary,Rural,Regular,No,No Source of Safe Water,No Health facility,No,No,No,2020/2021,22,19,41
GOMBE,FUNAKAYE,GJSS WAWA,10.7945,11.12455,WAWA WAKALTU,BAPPARU DUKKU ROAD,1160520005,Junior Secondary,Rural,Regular,No,No Source of Safe Water,First Aid Kit,No,Yes,No,2020/2021,136,37,173
GOMBE,FUNAKAYE,GJSS BUNGUM,11.002235,11.425513,BAGE WARD BAJOGA,,1160520006,Junior Secondary,Rural,Regular,No,Borehole,First Aid Kit,No,Yes,No,2020/2021,61,17,78
GOMBE,FUNAKAYE,GJSS DAYAYI,10.91929,11.474893,ASHAKA MAGABA,ALONG BAJOGA ASHAKA ROAD,1160520007,Junior Secondary,Rural,Regular,No,Borehole,No Health facility,No,Yes,No,2020/2021,107,103,210
GOMBE,FUNAKAYE,GJSS GUBE,11.085243,11.393655,,,1160520008,Junior Secondary,Rural,Regular,No,Borehole,No Health facility,No,Yes,Yes,2020/2021,71,29,100
GOMBE,FUNAKAYE,GJSS FESHINGO,10.916888,11.467158,BAGE,BEHIND JALINGO VILLAGE JALINGO VILLAGE,1160520009,Junior Secondary,Rural,Regular,No,Borehole,First Aid Kit,No,Yes,Yes,2020/2021,54,28,82
GOMBE,FUNAKAYE,GJSS BAJOGA SOUTH (GDSS),10.843,11.432,BAJOGA WEST,"OPP CIVIL DEFENCE OFFICE, ALONG GOMBE-POTISKUM ROAD",1160520010,Junior Secondary,Urban,Regular,No,Borehole,First Aid Kit,,No,No,2020/2021,92,74,166
GOMBE,FUNAKAYE,GJSS BAJOGA II,10.86,11.42,BAJOGA WEST,"BEHIND MODEL PRIMARY SCHOOL, BAJOGA",1160520011,Junior Secondary,Urban,Regular,No,No Source of Safe Water,No Health facility,No,No,No,2020/2021,72,61,133
GOMBE,FUNAKAYE,GJSS JALINGO ASHAKA (GCDSS),10.914563,11.472417,ASHAKA MAGABA,BEHIND FIRST BANK JALINGO ASHAKA,1160520012,Junior Secondary,Rural,Regular,No,No Source of Safe Water,First Aid Kit,No,Yes,No,2020/2021,213,193,406
GOMBE,FUNAKAYE,GDJSS BAJOGA,10.858,11.429,BAJOGA WEST,GOVERNMENT DAY STREET BAZARMA QUARTERS,1160520013,Junior Secondary,Urban,Regular,No,Borehole,No Health facility,No,No,No,2020/2021,93,62,155
GOMBE,FUNAKAYE,GJSS BAGE,10.94705,11.28021,BAGE,,1160520014,Junior Secondary,Rural,Regular,No,Borehole,First Aid Kit,No,No,No,2020/2021,200,100,300
GOMBE,FUNAKAYE,GJSS BAJOGA  CENTRAL,10.518688,11.253684,BAJOGA WEST,TIKE ROAD,1160520016,Junior Secondary,Urban,Regular,No,Borehole,First Aid Kit,No,No,No,2020/2021,430,639,1069
GOMBE,FUNAKAYE,GJSS TONGO,,,TONGO WARD,YERIMARI,1160520017,Junior Secondary,Rural,Regular,No,No Source of Safe Water,First Aid Kit,No,No,No,2020/2021,430,126,556
GOMBE,FUNAKAYE,GOVERNMENT MODEL JUNIOR SEC SCHOOL BAJOGA,10.860936,11.432144,BAGE WARD BAJOGA,BEHIND TOWNSHIP STADIUM BAJOGA,1160520018,Junior Secondary,Urban,Regular,No,Borehole,First Aid Kit,No,No,Yes,2020/2021,258,162,420
GOMBE,FUNAKAYE,GOVERNMENT JUNIOR SECONDARY SCHOOL ASHAKA GARI,10.904223,11.504458,ASHAKA MAGABA,ASHAKA-GARI,1160520019,Junior Secondary,Rural,Regular,No,Borehole,First Aid Kit,No,Yes,Yes,2020/2021,85,37,122
GOMBE,FUNAKAYE,FEDERAL GOVERNMENT JUNIOR GIRLS COLLEGE BAJOGA,,,BAJOGA WEST,NEAR TIKEN SHANU BAJOGA,1160520021,Junior Secondary,Urban,Regular,No,Borehole,First Aid Kit,No,No,No,2020/2021,0,361,361
GOMBE,FUNAKAYE,GJSS DARUMFA,10.909522,11.415206,BAGE,DARUMFA,1160520022,Junior Secondary,Rural,Regular,No,No Source of Safe Water,No Health facility,Yes,No,No,2020/2021,21,10,31
GOMBE,FUNAKAYE,GCJSS JILLAHI,10.425852,11.2240193,JILLAHI,ALONG BAJOGA ROAD,1160520023,Junior Secondary,Rural,Regular,No,No Source of Safe Water,No Health facility,No,No,Yes,2020/2021,88,54,142
GOMBE,FUNAKAYE,GDSS ASHAKA,10.904838,11.505945,ASHAKA MAGABA,ALONG ASHAKA GARI,1160530001,Senior Secondary,Urban,Regular,No,Borehole,First Aid Kit,No,No,No,2020/2021,61,22,83
GOMBE,FUNAKAYE,GDSS BAGE,10.944605,11.380302,BAGE WARD BAJOGA,LAYIN FADA,1160530002,Senior Secondary,Rural,Regular,No,Borehole,First Aid Kit,No,No,No,2020/2021,136,48,184
GOMBE,FUNAKAYE,GCDSS BAJOGA,10.8582556,11.429057,BAJOGA WEST,UNGUWAR MADAKI BEHIND TOWNSHIP STADIUM,1160530003,Senior Secondary,Urban,Regular,No,Borehole,First Aid Kit,No,Yes,No,2020/2021,856,406,1262
GOMBE,FUNAKAYE,GDSS BAJOGA SOUTH,10.843,11.432,BAJOGA EAST,ALONG GOMBE POTISKUM ROAD NEAR ALMAU PETROL STATION,1160530004,Senior Secondary,Urban,Regular,No,Borehole,First Aid Kit,No,No,Yes,2020/2021,105,69,174
GOMBE,FUNAKAYE,GDSS TONGO,10.715939,11.359068,TONGO WARD,BAUCHI STREET TONGO,1160530005,Senior Secondary,Rural,Regular,No,No Source of Safe Water,First Aid Kit,No,No,Yes,2020/2021,335,60,395
GOMBE,FUNAKAYE,GOVERNMENT DAY SECONDARY SCHOOL JALINGO,,,ASHAKA MAGABA,BEHIND FIRST BANK JALINGO ASHAKA,1160530006,Senior Secondary,Rural,Regular,No,Borehole,First Aid Kit,Yes,Yes,Yes,2020/2021,282,243,525
GOMBE,FUNAKAYE,FEDERAL GOVERNMENT GIRLS COLLEGE BAJOGA,,,BAJOGA WEST,"NEAR TIKEN SHANU, BAJOGA",1160530007,Senior Secondary,Urban,Regular,No,Borehole,Health Clinic,No,No,No,2020/2021,0,350,350
GOMBE,FUNAKAYE,GOVERNMENT COMPREHENSIVE DAY SECONDARY SCHOOL WAWA,10.7945,11.12455,WAWA / WAKKALTU,ALONG DUKKU ROAD WAWA FUNAKAYE LGA,1160530008,Senior Secondary,Rural,Regular,No,No Source of Safe Water,First Aid Kit,No,Yes,No,2020/2021,96,24,120
GOMBE,FUNAKAYE,GDSS RIBADU,10.651506,11.334421,RIBADU,NEAR RIBADU PRIMARY SCHOOL,1160530009,Senior Secondary,Rural,Regular,No,,,No,No,No,2020/2021,69,17,86
GOMBE,FUNAKAYE,MANAGEMENT ESTATE PRIMARY SCHOOL,10.9471,11.4578,ASHAKA MAGABA,ASHAKA,1160540001,Private Education,Rural,Regular,No,Pipe borne Water,Health Clinic,,No,,2020/2021,30,37,67
GOMBE,FUNAKAYE,WORKERS VILLAGE PRIMARY SCHOOL,10.922706,11.48409,ASHAKA MAGABA,ASHAKA,1160540002,Private Education,Rural,Regular,Yes,Borehole,First Aid Kit,,No,,2020/2021,108,120,228
GOMBE,FUNAKAYE,MARGARET WELE NURSERY SCHOOL,10.921342,11.481828,ASHAKA MAGABA,ASHAKA,1160540003,Private Education,Rural,Regular,No,Pipe borne Water,First Aid Kit,,No,,2020/2021,48,46,94
GOMBE,FUNAKAYE,NASARA EXECUTIVE CHILDREN ACADEMY BAJOGA,10.85712,11.44404,BAJOGA WEST,BAJOGA,1160540005,Private Education,Urban,Regular,No,No Source of Safe Water,First Aid Kit,,No,,2020/2021,112,121,233
GOMBE,FUNAKAYE,GOTEL INTERNATINAL CHILDREN ACADEMY,,,TONGO WARD,TONGO,1160540006,Private Education,Rural,Regular,No,No Source of Safe Water,First Aid Kit,,No,,2020/2021,206,144,350
GOMBE,FUNAKAYE,BEST WAY INTERNATIONAL HIGH SCHOOL,10.91312,11.482434,ASHAKA MAGABA,NEAR WORKERS VILLAGE,1160540009,Private Education,Rural,Regular,No,Pipe borne Water,First Aid Kit,,Yes,,2020/2021,23,15,38
GOMBE,FUNAKAYE,SULTAN ATTAHIR  SENIOR SECONDARY SCHOOL,10.865,11.433,BAJOGA WEST,POTISKUM ROAD,1160540010,Private Education,Urban,Regular,No,Borehole,No Health facility,,No,,2020/2021,240,154,394
GOMBE,FUNAKAYE,MUSAB BN UMAIR NUR PRIMARY SCHOOL,,,BAJOGA EAST,ALONG GOMBE POTISKUM ROAD,1160540012,Private Education,Rural,Regular,No,Borehole,First Aid Kit,,No,,2020/2021,508,430,938
GOMBE,FUNAKAYE,ST ANDREW NURSERY & PRIMARY   SCHOOL,10.861065,11.433311,BAJOGA WEST,BEHIND STADIUM BAJOGA,1160540013,Private Education,Urban,Regular,No,Borehole,First Aid Kit,,Yes,,2020/2021,144,142,286
GOMBE,FUNAKAYE,ECWA NURSERY PRIMARY SCHOOL ASHAKA,,,BAGE WARD BAJOGA,UNGUWAR ALHERI,1160540014,Private Education,Rural,Regular,No,Pipe borne Water,First Aid Kit,,No,,2020/2021,104,88,192
GOMBE,FUNAKAYE,A G MODERN NURSERY PRIMARY & SECONDARY SCHOOLS,10.92352,11.478717,ASHAKA MAGABA,ASHAKA WORKERS VILLAGE,1160540016,Private Education,Rural,Regular,No,Pipe borne Water,First Aid Kit,,No,,2020/2021,73,84,157
GOMBE,FUNAKAYE,COMMUNITY  ISLAMIYYA NURSERY & PRIMARY SCHOOL,11.482437,,ASHAKA MAGABA,BEHIND ESTATE ASHAKA COMPANY,1160540018,Private Education,Rural,Regular,No,Pipe borne Water,First Aid Kit,,No,,2020/2021,216,220,436
GOMBE,FUNAKAYE,JIBWIS SCIENCE SECONDARY SCHOOL,10.867,11.435,BAJOGA EAST,OPPOSITE LG SECRETARIATE BAJOGA,1160540019,Private Education,Urban,Regular,Yes,Borehole,First Aid Kit,,Yes,,2020/2021,170,199,369
GOMBE,FUNAKAYE,ASAS ISLAMIC NURSERY AND PRIMARY  SCHOOL,10.848,11.427,BAJOGA EAST,OPPOSITE LG SECRETARIATE BAJOGA,1160540020,Private Education,Urban,Regular,No,Borehole,First Aid Kit,,Yes,,2020/2021,127,90,217
GOMBE,FUNAKAYE,DARUL HADITH NURSERY SCHOOL,10.859,11.438,BAJOGA EAST,BEHIND LOCAL GOVERNMENT SECRETARIAT BAJOGA,1160540021,Private Education,Urban,Regular,No,Well,First Aid Kit,,No,,2020/2021,31,23,54
GOMBE,FUNAKAYE,UMAR BIN KADDAF ACADEMY,,,ASHAKA MAGABA WARD,ALHERI QUARTERS ALONG ASHAKA WORKERS VILLAGE,1160540022,Private Education,Rural,Regular,No,Borehole,First Aid Kit,,No,,2020/2021,168,189,357
GOMBE,FUNAKAYE,KANZUL KHAIRAT NURSERY & PRIMARY SCHOOL BAJOGA,10.854,11.442,BAJOGA EAST,UNGUWAN YOBE BAJOGA,1160540024,Private Education,Urban,Islamiyya integrated,No,Borehole,First Aid Kit,,No,,2020/2021,194,73,267
GOMBE,FUNAKAYE,SARKI UMAR PRIMARY SCHOOL,10708196.0,11356577.0,TONGO,YERI MARI,1160540028,Private Education,Rural,Regular,No,No Source of Safe Water,First Aid Kit,,No,,2020/2021,57,51,108
GOMBE,FUNAKAYE,NASARA EXECUTIVE CHILDREN ACADEMY ASHAKA,10.916766,11.479688,ASHAKA MAGABA,ANGUWAN ALHERI,1160540029,Private Education,Rural,Regular,No,No Source of Safe Water,First Aid Kit,,No,,2020/2021,126,125,251
GOMBE,FUNAKAYE,SHEIK HASSAN DAN GOMBO TAHFIZUL QURÁN BAJOGA,10.860488,11.433286,BAJOGA WEST,TIKE ROAD BAJOGA,1160540030,Private Education,Urban,Regular,No,Borehole,First Aid Kit,,No,,2020/2021,178,167,345
GOMBE,FUNAKAYE,FUDÍYYA PRIMARY AND NURSERY SCHOOL BAJOGA,10.861218,11.443446,BAJOGA WEST,BAJOGA ALONG MARKET ROAD,1160540032,Private Education,Urban,Islamiyya integrated,No,No Source of Safe Water,First Aid Kit,,Yes,,2020/2021,105,91,196
GOMBE,FUNAKAYE,TARBIYYA ACADEMY JUNIOR SECONDARY SCHOOL,10.7,11.36,TONGO,YARIMA QUATERS,1160540033,Private Education,Rural,Regular,Yes,Other,First Aid Kit,,No,,2020/2021,73,38,111
GOMBE,FUNAKAYE,FGGC NURSERY AND PRIMARY SCHOOL,,,BAJOGA WEST,ALONG TIKE ROAD BAJOGA,1160540034,Private Education,Rural,Regular,No,Borehole,First Aid Kit,,No,,2020/2021,183,152,335
GOMBE,FUNAKAYE,ASAS ISLAMIC NURSERY AND PRIMARY  SCHOOL,,,BAJOGA WEST,ADJACENT FUNAKAYE SECRETARIAT,1160540035,Private Education,Urban,Islamiyya integrated,No,Borehole,No Health facility,,Yes,,2020/2021,180,120,300
GOMBE,FUNAKAYE,ANWARUL ISLAM TONGO,10.718982,11.358221,TONGO,ANGUWAR YARIMA TARI,1160540036,Private Education,Rural,Islamiyya integrated,No,Borehole,First Aid Kit,,No,,2020/2021,32,30,62
GOMBE,FUNAKAYE,ZAID BN HARIS ACADEMY,10.916766,11.479688,ASHAKA MAGABA,OPPOSIE JALINGO PRIMARY SCHOOL ASHAKA CEMENT,1160540037,Private Education,Rural,Islamiyya integrated,No,Borehole,First Aid Kit,,No,,2020/2021,92,94,186
GOMBE,FUNAKAYE,GJSTC BAJOGA,10.861117,11.4334452,BAJOGA EAST,BEHIND POLICE STATION ALONG GOMBE POTISKUM ROAD,1160550001,Science and Vocational,Urban,Vocational Training Centre,No,Pipe borne Water,First Aid Kit,No,No,No,2020/2021,308,163,471
