state,lga,name_school,latitude_north,longitude_east,ward,number_and_street,code_school,name_type_sector,name_type_location,name_type_school,shift_system_y_n,name_type_water_source,name_type_health_facility,any_classes_held_outside_y_n,shared_facilities_y_n,multi_grade_y_n,name_type_year,male_enrol,female_enrol,total erlrolment
GOMBE,KALTUNGO,OKWALDI PRIMARY SCHOOL,9.812933,11.385388,TURE,OKWALDI,1160710002,Pre-Primary and Primary,Rural,Regular,No,No Source of Safe Water,First Aid Kit,No,No,No,2020/2021,78,57,135
GOMBE,KALTUNGO,NASARAWA KALTUNGO PRIMARY SCHOOL,,,KALTUNGO WEST,"YOLA ROAD, CLOSE TO GSSS KALTUNGO, NASARAWA",1160710003,Pre-Primary and Primary,Rural,Regular,No,Borehole,First Aid Kit,No,Yes,No,2020/2021,210,264,474
GOMBE,KALTUNGO,TERMANA PRIMARY SCHOOL,9.822804,11.300691,KALTUNGO WEST,ALONG KULISHING DRIVE TERMANA,1160710004,Pre-Primary and Primary,Rural,Regular,No,No Source of Safe Water,No Health facility,No,No,No,2020/2021,238,272,510
GOMBE,KALTUNGO,SWATU PRIMARY SCHOOL,9.81,11.0,WANGE,SWATU   BAYILI,1160710005,Pre-Primary and Primary,Rural,Regular,No,Borehole,No Health facility,No,No,Yes,2020/2021,96,90,186
GOMBE,KALTUNGO,GUJUBA PRIMARY SCHOOL,9.9442,11.32744,kamo,GUJUBA,1160710006,Pre-Primary and Primary,Rural,Regular,No,No Source of Safe Water,First Aid Kit,No,No,Yes,2020/2021,269,259,528
GOMBE,KALTUNGO,JAURO ALI   PRIMARY SCHOOL,10.040866,11.623349,BAULE KALTIN,"DOGON RUWA TALASSE ROAD, NEAR CEMETRY",1160710007,Pre-Primary and Primary,Rural,Regular,No,No Source of Safe Water,No Health facility,No,No,No,2020/2021,145,93,238
GOMBE,KALTUNGO,WUNTA PRIMARY SCHOOL,9.870405,11.404887,AWAK,WUNTA,1160710008,Pre-Primary and Primary,Rural,Regular,No,No Source of Safe Water,No Health facility,No,Yes,Yes,2020/2021,87,102,189
GOMBE,KALTUNGO,BILKITAMAN PRIMARY SCHOOL,,,BAULE CENTRAL,"BILKITAMAN, BY JAURO SUNUSI BILKITAMAN BAULE TULA",1160710009,Pre-Primary and Primary,Rural,Regular,No,No Source of Safe Water,No Health facility,Yes,No,No,2020/2021,98,71,169
GOMBE,KALTUNGO,YANSALE PRIMARY SCHOOL,9.539628,11.380963,TULA,YANSALE BAULE TULA,1160710011,Pre-Primary and Primary,Rural,Regular,No,Well,No Health facility,No,Yes,No,2020/2021,135,128,263
GOMBE,KALTUNGO,LAMANDAJI PRIMARY SCHOOL,,,KAMO,KAMO LAMANDAJI,1160710012,Pre-Primary and Primary,Rural,Regular,No,No Source of Safe Water,No Health facility,No,No,No,2020/2021,55,41,96
GOMBE,KALTUNGO,PANDI PRIMARY SCHOOL,9.816799,11.362115,TURE,PANDI ALONG YOLA GOMBE ROAD,1160710013,Pre-Primary and Primary,Rural,Regular,No,No Source of Safe Water,First Aid Kit,No,No,Yes,2020/2021,110,175,285
GOMBE,KALTUNGO,FANTAMI PRIMARY SCHOOL KALTUNGO,9.71512,11.44844,WANGE,"FANTAMI, ALONG YOLA ROAD KALTUNGO",1160710014,Pre-Primary and Primary,Rural,Regular,No,No Source of Safe Water,First Aid Kit,No,No,Yes,2020/2021,278,233,511
GOMBE,KALTUNGO,KALUWA PRIMARY SCHOOL,9.7036,11.43481,KALTUNGO EAST,KALUWA ALONG YOLA ROAD,1160710015,Pre-Primary and Primary,Rural,Regular,No,No Source of Safe Water,First Aid Kit,No,No,No,2020/2021,128,130,258
GOMBE,KALTUNGO,LAPANDIMTAI NURSERY AND PRIMARY SCHOOL,9.820177,11.326372,KALTUNGO WEST,"LAPANDIMTAI, BEHIND MAI KALTUNGO'S PALACE",1160710016,Pre-Primary and Primary,Rural,Regular,No,Borehole,First Aid Kit,No,No,No,2020/2021,153,148,301
GOMBE,KALTUNGO,TURE PILOT PRIMARY SCHOOL,9.825,11.477,TURE,TURE MAI ALONG YOLA ROAD,1160710017,Pre-Primary and Primary,Rural,Regular,No,No Source of Safe Water,First Aid Kit,No,Yes,No,2020/2021,122,133,255
GOMBE,KALTUNGO,LAKOLING PRIMARY SCHOOL,9830945.0,11.292365,KALTUNGO WEST,LAKOLING,1160710018,Pre-Primary and Primary,Urban,Regular,No,No Source of Safe Water,First Aid Kit,No,No,No,2020/2021,118,79,197
GOMBE,KALTUNGO,JAURO GOTEL PRIMARY SCHOOL,10.0127,11.489072,AWAK,DOGON RUWA ALONG KALTUNGO ROAD,1160710019,Pre-Primary and Primary,Rural,Regular,No,No Source of Safe Water,No Health facility,No,No,Yes,2020/2021,82,50,132
GOMBE,KALTUNGO,BANDARA PRIMARY SCHOOL,9732730.0,11359522.0,KALTUNGO EAST,BANDARA,1160710020,Pre-Primary and Primary,Rural,Regular,No,No Source of Safe Water,No Health facility,No,Yes,No,2020/2021,118,119,237
GOMBE,KALTUNGO,KWE PRIMARY SCHOOL,9.819744,11.306415,TURE,ALONG YOLA ROAD OFF TURE PANDI,1160710021,Pre-Primary and Primary,Rural,Regular,No,No Source of Safe Water,First Aid Kit,Yes,No,No,2020/2021,107,103,210
GOMBE,KALTUNGO,BIRWAI PRIMARY SCHOOL,10.013191,11.403396,KAMO,"BIRWAI, ALONG DOGON RUWA ROAD",1160710022,Pre-Primary and Primary,Rural,Regular,Yes,No Source of Safe Water,First Aid Kit,Yes,Yes,No,2020/2021,77,96,173
GOMBE,KALTUNGO,NAKANGE PRIMARY SCHOOL,9.81976,11.31184,KAMO,NAKANGE,1160710023,Pre-Primary and Primary,Rural,Regular,No,No Source of Safe Water,First Aid Kit,No,No,Yes,2020/2021,50,63,113
GOMBE,KALTUNGO,YIRI PRIMARY SCHOOL,9.8075,11.0863,YIRI,YIRI KURSU,1160710024,Pre-Primary and Primary,Rural,Regular,No,Borehole,First Aid Kit,No,Yes,No,2020/2021,170,173,343
GOMBE,KALTUNGO,TAM NOMADIC PRIMARY SCHOOL,9.795603,1.1383711,TURE,"BEHIND MOUNTAIN OF TURE MAI, ALONG YOLA ROAD",1160710025,Pre-Primary and Primary,Rural,Nomadic (Migrants),No,Borehole,First Aid Kit,Yes,No,Yes,2020/2021,21,17,38
GOMBE,KALTUNGO,AK-BALAM PRIMARY SCHOOL,9.795277,11.360853,TURE,ALONG YOLA ROAD OFF TURE BALAM,1160710026,Pre-Primary and Primary,Rural,Regular,No,No Source of Safe Water,No Health facility,Yes,No,No,2020/2021,35,54,89
GOMBE,KALTUNGO,OKRA   PRIMARY SCHOOL,9825592.0,11307734.0,TURE,"OKRA, ALONG YOLA ROAD",1160710027,Pre-Primary and Primary,Rural,Regular,Yes,Borehole,First Aid Kit,No,Yes,Yes,2020/2021,125,124,249
GOMBE,KALTUNGO,SABON GARI BAULE PRIMARY SCHOOL,10.0807,11.1495,BULE KALTIN,"S/GARI BAULE, JALINGO ROAD",1160710028,Pre-Primary and Primary,Rural,Regular,No,No Source of Safe Water,No Health facility,Yes,No,No,2020/2021,166,107,273
GOMBE,KALTUNGO,YABDE PRIMARY SCHOOL,9.933812,11.44066,BULE KALTIN,YABDE,1160710029,Pre-Primary and Primary,Rural,Regular,No,No Source of Safe Water,No Health facility,No,No,No,2020/2021,90,92,182
GOMBE,KALTUNGO,KAMO PRIMARY SCHOOL,,,KAMO,KAMO PATUWA ANGUWAN HAKIMI,1160710030,Pre-Primary and Primary,Rural,Regular,No,No Source of Safe Water,No Health facility,No,No,No,2020/2021,181,160,341
GOMBE,KALTUNGO,BUKLI PRIMARY SCHOOL,,,KAMO,ALONG DOGIN RUWA WAY,1160710031,Pre-Primary and Primary,Rural,Regular,Yes,No Source of Safe Water,First Aid Kit,No,No,Yes,2020/2021,81,78,159
GOMBE,KALTUNGO,JAURO AUDI PRIMARY SCHOOL,9.9759,11.54733,BAULE CENTRAL,JAURO AUDI,1160710032,Pre-Primary and Primary,Rural,Regular,No,No Source of Safe Water,First Aid Kit,Yes,No,No,2020/2021,111,101,212
GOMBE,KALTUNGO,JAURO KORAU PRIMARY SCHOOL,10.008932,11.52877,AWAK,DOGON RUWA ALONG KALTUNGO ROAD,1160710033,Pre-Primary and Primary,Rural,Regular,No,No Source of Safe Water,No Health facility,No,No,No,2020/2021,62,65,127
GOMBE,KALTUNGO,YERI PRIMARY SCHOOL,9.9027,11.400962,AWAK SOUTH,"YERI, AWAK  STREET",1160710034,Pre-Primary and Primary,Rural,Regular,No,No Source of Safe Water,No Health facility,No,No,Yes,2020/2021,60,32,92
GOMBE,KALTUNGO,GARIN BARAU PRIMARY SCHOOL,9.995517,11.51348,AWAK,"DOGON RUWA, ALONG KALTUNGO ROAD",1160710035,Pre-Primary and Primary,Rural,Regular,No,No Source of Safe Water,No Health facility,,No,No,2020/2021,94,61,155
GOMBE,KALTUNGO,YANNAKATA PRIMARY SCHOOL,981987.0,11.31155,KAMO,YANNAKATA       ALONG BILLIRI DOGON RUWA ROAD,1160710036,Pre-Primary and Primary,Rural,Regular,No,No Source of Safe Water,First Aid Kit,Yes,No,No,2020/2021,145,172,317
GOMBE,KALTUNGO,MOSSO PRIMARY SCHOOL,9.976171,11.30741,KAMO,ALONG BILLIRI DOGON RUWA ROAD,1160710037,Pre-Primary and Primary,Rural,Regular,No,No Source of Safe Water,No Health facility,Yes,Yes,No,2020/2021,124,139,263
GOMBE,KALTUNGO,LAYIRO NOMADIC PRIMARY SCHOOL,97.04247,11.316935,KALTUNGO EAST,LAYIRO POPANDI,1160710038,Pre-Primary and Primary,Rural,Regular,No,No Source of Safe Water,First Aid Kit,,No,No,2020/2021,114,145,259
GOMBE,KALTUNGO,AMTAI PRIMARY SCHOOL,9.69016,11.34255,KALTUNGO EAST,AMTAI,1160710039,Pre-Primary and Primary,Rural,Regular,No,No Source of Safe Water,First Aid Kit,Yes,No,No,2020/2021,131,151,282
GOMBE,KALTUNGO,MOH'D MEM0RIAL RIMARY SCHOOL,9.8265,11.3041,KALTUNGO WEST,"ALONG TARMANA PRIMARY SCHPOOL, POOSITE OLD EMIRS PLALACE",1160710040,Pre-Primary and Primary,Urban,Regular,No,No Source of Safe Water,First Aid Kit,Yes,No,No,2020/2021,197,243,440
GOMBE,KALTUNGO,KALEH PRIMARY SCHOOL,9.7957,11.31499,KALTUNGO EAST,BEHINDE GOVERNMENT SCIENCE SECONDARY SCHOOL KALTUNGO,1160710041,Pre-Primary and Primary,Rural,Regular,No,Borehole,First Aid Kit,No,No,No,2020/2021,50,33,83
GOMBE,KALTUNGO,JAURO SAINI PRIMARY SCHOOL,10.023321,11.329417,KAMO,JAURO SAINI,1160710043,Pre-Primary and Primary,Rural,Regular,No,No Source of Safe Water,No Health facility,No,No,No,2020/2021,84,73,157
GOMBE,KALTUNGO,LATASHINE PRIMARY SCHOOL,9.99444,11.4253,AWAK,LATASHINE,1160710044,Pre-Primary and Primary,Rural,Regular,No,No Source of Safe Water,No Health facility,Yes,No,No,2020/2021,49,49,98
GOMBE,KALTUNGO,JONGRI PRIMARY SCHOOL,,,BAULE CENTRAL,ALONG TALASSE DOGON RUWA ROAD,1160710045,Pre-Primary and Primary,Rural,Regular,No,No Source of Safe Water,First Aid Kit,Yes,No,No,2020/2021,147,100,247
GOMBE,KALTUNGO,KOLWA  PRIMARY SCHOOL,9.919345,11.289607,TUNGO,KOLWA VILLAGE ALONG GUJUBA ROAD,1160710046,Pre-Primary and Primary,Rural,Regular,No,No Source of Safe Water,No Health facility,No,No,Yes,2020/2021,48,48,96
GOMBE,KALTUNGO,LATARIN PRIMARY SCHOOL,9.946009,11.386105,KAMO,"LATARIN, ALONG SABON LAYI AWAK",1160710047,Pre-Primary and Primary,Rural,Regular,No,No Source of Safe Water,First Aid Kit,Yes,Yes,Yes,2020/2021,97,73,170
GOMBE,KALTUNGO,LANGARE NOMADIC PRIMARY SCHOOL,0.93898,11.406987,AWAK,LANGARE,1160710048,Pre-Primary and Primary,Rural,Nomadic (Migrants),No,No Source of Safe Water,No Health facility,No,No,Yes,2020/2021,110,68,178
GOMBE,KALTUNGO,DAURA NOMADIC PRIMARY SCHOOL,9.9377,11.41189,AWAK  SOUTH,"DAURA, SABON LAYI AWAK STREET",1160710049,Pre-Primary and Primary,Rural,Nomadic (Migrants),No,No Source of Safe Water,No Health facility,No,No,No,2020/2021,63,105,168
GOMBE,KALTUNGO,BALAM PRIMARY SCHOOL,9.80115,11.38019,TURE,TURE BALAM ALONG YOLA ROAD,1160710050,Pre-Primary and Primary,Rural,Regular,No,Borehole,No Health facility,No,Yes,No,2020/2021,95,68,163
GOMBE,KALTUNGO,TENI NOMADIC PRIMARY SCHOOL,9.8196,11.0961,KAMO,"TENI, ALONG BILLIRI DOGON RUWA ROAD",1160710051,Pre-Primary and Primary,Rural,Nomadic (Migrants),No,,,,No,No,2020/2021,85,91,176
GOMBE,KALTUNGO,POKWANGLI   PRIMARY SCHOOL,9.929587,11.267175,TUNGO,POKWANGLI  ALONG DOGON RUWA ROAD,1160710052,Pre-Primary and Primary,Rural,Regular,No,No Source of Safe Water,First Aid Kit,No,Yes,No,2020/2021,86,55,141
GOMBE,KALTUNGO,BWARA PRIMARY SCHOOL,9.938973,11.407035,AWAK  SOUTH,"BWARA, SABON LAYI AWAK",1160710055,Pre-Primary and Primary,Rural,Regular,No,No Source of Safe Water,No Health facility,No,No,No,2020/2021,54,75,129
GOMBE,KALTUNGO,YELWA KAMO PRIMARY SCHOOL,9.98,11.36,KAMO,Y/KAMO  SHENGE SHENGE BIRWAL ROAD,1160710056,Pre-Primary and Primary,Rural,Regular,No,No Source of Safe Water,No Health facility,No,No,No,2020/2021,83,79,162
GOMBE,KALTUNGO,JALINGO KAMO PRIMARY SCHOOL,10.005938,11.348807,KAMO,ALONG KEMBU VILLAGE,1160710057,Pre-Primary and Primary,Rural,Regular,No,No Source of Safe Water,First Aid Kit,Yes,No,No,2020/2021,235,201,436
GOMBE,KALTUNGO,POSHERENG PRIMARY SCHOOL,9.790903,11.313363,KALTUNGO EAST,POSHERENG,1160710058,Pre-Primary and Primary,Rural,Regular,No,No Source of Safe Water,First Aid Kit,No,Yes,No,2020/2021,86,91,177
GOMBE,KALTUNGO,JAURO MUSA PRIMARY SCHOOL,10.024039,11.313541,KAMO,J/MUSA,1160710059,Pre-Primary and Primary,Rural,Regular,No,No Source of Safe Water,First Aid Kit,No,No,No,2020/2021,138,139,277
GOMBE,KALTUNGO,GARIN BAKO PRIMARY SCHOOL,9.991653,11.476238,AWAK,AWAK,1160710060,Pre-Primary and Primary,Rural,Regular,No,No Source of Safe Water,No Health facility,Yes,No,Yes,2020/2021,115,86,201
GOMBE,KALTUNGO,BWADIYE PRIMARY SCHOOL,98806.0,11.476,YIRI,BWADIYE,1160710061,Pre-Primary and Primary,Rural,Regular,No,No Source of Safe Water,First Aid Kit,No,No,Yes,2020/2021,124,150,274
GOMBE,KALTUNGO,KILANG  PRIMARY SCHOOL,,,KALTUNGO EAST,KILANG,1160710063,Pre-Primary and Primary,Rural,Regular,No,No Source of Safe Water,No Health facility,No,No,No,2020/2021,86,91,177
GOMBE,KALTUNGO,NYBIR PRIMARY SCHOOL,9.82362,11.21731,KAMO,KAMO,1160710064,Pre-Primary and Primary,Rural,Regular,No,No Source of Safe Water,No Health facility,Yes,No,Yes,2020/2021,80,76,156
GOMBE,KALTUNGO,PURMAI PRIMARY SCHOOL,9682851.0,11357179.0,KALTUNGO EAST,PURMAI,1160710065,Pre-Primary and Primary,Rural,Regular,No,No Source of Safe Water,First Aid Kit,Yes,Yes,Yes,2020/2021,101,93,194
GOMBE,KALTUNGO,KWANG PRIMARY SCHOOL,,,BAULE KALTIN,ALONG JALINGO BAULE ROAD,1160710066,Pre-Primary and Primary,Rural,Regular,No,No Source of Safe Water,No Health facility,Yes,No,No,2020/2021,90,100,190
GOMBE,KALTUNGO,SANG-SANG NOMADIC PRIMARY SCHOOL,9.682782,11.356827,KALTUNGO EAST,NEAR PURMAI PRIMARY SCHOOL,1160710067,Pre-Primary and Primary,Rural,Nomadic (Migrants),No,No Source of Safe Water,No Health facility,Yes,No,No,2020/2021,33,42,75
GOMBE,KALTUNGO,KALORGU PRIMARY SCHOOL,9.815718,11.294211,KALTUNGO WEST,KALORGU,1160710068,Pre-Primary and Primary,Urban,Regular,No,Borehole,First Aid Kit,Yes,Yes,Yes,2020/2021,237,219,456
GOMBE,KALTUNGO,BULE NOMADIC,9.880944,11.448798,TULA BAULE KALTIN,BULE NOM.,1160710069,Pre-Primary and Primary,Rural,Nomadic (Migrants),No,No Source of Safe Water,No Health facility,Yes,No,No,2020/2021,31,39,70
GOMBE,KALTUNGO,LAYIRO PRIMARY SCHOOL,9682120.0,11327981.0,KALTUNGO EAST,LAYIRO,1160710071,Pre-Primary and Primary,Rural,Regular,No,Borehole,No Health facility,Yes,Yes,No,2020/2021,283,270,553
GOMBE,KALTUNGO,TAN-TAN PRIMARY SCHOOL,9.839238,11.401642,TULA,BEHIND GGSS TULA,1160710072,Pre-Primary and Primary,Rural,Regular,No,Borehole,First Aid Kit,No,No,No,2020/2021,88,83,171
GOMBE,KALTUNGO,YELWA BAULE PRIMARYSCHOOL,9.817611,11.31196,BAULE CENTRAL,Y/BAULE OPPOSITE EVANGELICAL CHURCH WINNING,1160710073,Pre-Primary and Primary,Rural,Regular,No,No Source of Safe Water,No Health facility,Yes,No,No,2020/2021,33,30,63
GOMBE,KALTUNGO,AWAK PRIMARY SCHOOL,9.874762,11.401185,AWAK,AWAK,1160710074,Pre-Primary and Primary,Rural,Regular,No,Other,First Aid Kit,No,No,No,2020/2021,92,77,169
GOMBE,KALTUNGO,LAKWEMEN PRIMARY SCHOOL,9.72,11.41,KALTUNGO EAST,LAKWEME ALONG YOLA ROAD KALTUNGO,1160710075,Pre-Primary and Primary,Rural,Regular,No,No Source of Safe Water,No Health facility,No,No,No,2020/2021,151,119,270
GOMBE,KALTUNGO,DUNDAYE PRIMARY SCHOOL,9.96917,11.414488,AWAK,DUNDAYE,1160710076,Pre-Primary and Primary,Rural,Regular,No,No Source of Safe Water,No Health facility,No,No,Yes,2020/2021,87,76,163
GOMBE,KALTUNGO,LAKANJE PRIMARY SCHOOL,,,KALTUNGO,ALONG KILANG HIGF SCHOOL,1160710077,Pre-Primary and Primary,Rural,Regular,No,No Source of Safe Water,First Aid Kit,Yes,No,No,2020/2021,108,131,239
GOMBE,KALTUNGO,SURAH PRIMARY SCHOOL,9.82,11.5,WANGE,SURAH,1160710078,Pre-Primary and Primary,Rural,Regular,No,No Source of Safe Water,No Health facility,Yes,No,Yes,2020/2021,129,121,250
GOMBE,KALTUNGO,BWELE PRIMARY SCHOOL,9.83,11.51,WANGE  TULA,LAKELE WANGE,1160710079,Pre-Primary and Primary,Rural,Regular,No,No Source of Safe Water,No Health facility,No,No,Yes,2020/2021,109,125,234
GOMBE,KALTUNGO,PODI PRIMARY SCHOOL,9693975.0,11359428.0,KALTUNGO EAST,PODI,1160710080,Pre-Primary and Primary,Rural,Regular,No,No Source of Safe Water,No Health facility,Yes,No,Yes,2020/2021,70,66,136
GOMBE,KALTUNGO,KIJE PRIMARY SCHOOL,9.70427,11.316935,KALTUNGO EAST,KIJE KALTUNGO,1160710081,Pre-Primary and Primary,Rural,Regular,No,Borehole,First Aid Kit,No,No,No,2020/2021,88,82,170
GOMBE,KALTUNGO,BEKUNTI PRIMARY SCHOOL,9.7159,11.4923,KALTUNGO EAST,ADJECENT TO GALADIMA YIRI YOLA ROAD,1160710082,Pre-Primary and Primary,Rural,Regular,No,No Source of Safe Water,No Health facility,No,Yes,No,2020/2021,72,58,130
GOMBE,KALTUNGO,KUNGE PRIMARY SCHOOL,9.86,11.4,AWAK,KUNGE,1160710083,Pre-Primary and Primary,Rural,Regular,No,No Source of Safe Water,No Health facility,No,No,Yes,2020/2021,143,120,263
GOMBE,KALTUNGO,STORE PRIMARY SCHOOL,9.744167,11.399157,TURE,BALAM ALONG YOLA GOMBE ROAD,1160710084,Pre-Primary and Primary,Rural,Regular,No,No Source of Safe Water,First Aid Kit,No,No,No,2020/2021,129,123,252
GOMBE,KALTUNGO,KWABILAKE PRIMARY SCHOOL,9.952116,11.451285,AWAK,"DOGON RUWA, ALONG KALTUNGO ROAD, KWABILAKE",1160710085,Pre-Primary and Primary,Rural,Regular,No,No Source of Safe Water,No Health facility,No,No,Yes,2020/2021,67,62,129
GOMBE,KALTUNGO,KAN PRIMARY SCHOOL,9.845178,11.471388,WANGE,KWALUME,1160710086,Pre-Primary and Primary,Rural,Regular,No,No Source of Safe Water,First Aid Kit,No,No,No,2020/2021,126,160,286
GOMBE,KALTUNGO,BUNDE-BUNDE PRIMARY SCHOOL,10.08071,11.149599,BULE KALTIN,"ALONG KALTIN JALINGO TULA BAULE ROAD, BUNDE-BUNDE",1160710087,Pre-Primary and Primary,Rural,Regular,No,No Source of Safe Water,No Health facility,No,No,No,2020/2021,98,107,205
GOMBE,KALTUNGO,GARIN GAMJI PRIMARY SCHOOL,9.93205,11.45657,B/KALTUNGO,DOGON RUWA ALONG KALTUNGO ROAD,1160710088,Pre-Primary and Primary,Rural,Regular,No,No Source of Safe Water,No Health facility,Yes,Yes,No,2020/2021,92,116,208
GOMBE,KALTUNGO,BAULE CENTRAL PRIMARY SCHOOL,9.86023,11.482332,BAULE CENTRAL,BAULE,1160710089,Pre-Primary and Primary,Rural,Regular,No,Well,First Aid Kit,No,No,No,2020/2021,152,120,272
GOMBE,KALTUNGO,SABON GARI WANGE PRIMARY SCHOOL,,,BAULE KALTIN,OFF AWAK/DOGON RUWA  ROAD,1160710090,Pre-Primary and Primary,Rural,Regular,No,Borehole,First Aid Kit,No,Yes,No,2020/2021,63,61,124
GOMBE,KALTUNGO,KALTIN PRIMARY SCHOOL,9.917692,11.47681,BULE-KALTIN,KALTIN,1160710091,Pre-Primary and Primary,Rural,Regular,No,No Source of Safe Water,First Aid Kit,No,No,No,2020/2021,154,182,336
GOMBE,KALTUNGO,TULA PRIMARY SCHOOL,9.8416,11.47571,WANGE,KWALKA,1160710092,Pre-Primary and Primary,Rural,Regular,No,No Source of Safe Water,First Aid Kit,No,No,No,2020/2021,87,87,174
GOMBE,KALTUNGO,MOLDING PRIMARY SCHOOL,9.699238,11.375377,KALTUNGO EAST,MOLDING,1160710093,Pre-Primary and Primary,Rural,Regular,No,No Source of Safe Water,No Health facility,No,No,Yes,2020/2021,194,202,396
GOMBE,KALTUNGO,TIYE PRIMARY SCHOOL,9.52038,11.132904,,TIYE BAULE  ALONG BUNDI ROAD,1160710094,Pre-Primary and Primary,Rural,Regular,No,No Source of Safe Water,First Aid Kit,Yes,No,No,2020/2021,176,160,336
GOMBE,KALTUNGO,LEFUNE PRIMARY SCHOOL TULA WANGE,,,WANGE,MARARRABA ALONG WANGE,1160710095,Pre-Primary and Primary,Rural,Regular,No,No Source of Safe Water,First Aid Kit,No,No,Yes,2020/2021,65,78,143
GOMBE,KALTUNGO,DINDIBIN PRIMARY SCHOOL,9.754313,11.540221,BULE/KALTIN,ALONG SABON GARI WANGE ROAD,1160710096,Pre-Primary and Primary,Rural,Regular,No,No Source of Safe Water,No Health facility,Yes,No,No,2020/2021,81,126,207
GOMBE,KALTUNGO,SHULE PRIMARY SCHOOL,96.84142,11.326143,KALTUNGO,SHULE,1160710097,Pre-Primary and Primary,Rural,Regular,No,No Source of Safe Water,No Health facility,Yes,No,Yes,2020/2021,71,82,153
GOMBE,KALTUNGO,WILI PRIMARY SCHOOL,9.912247,11.265258,TUNGO WARD,WILI,1160710098,Pre-Primary and Primary,Rural,Regular,No,No Source of Safe Water,First Aid Kit,Yes,Yes,No,2020/2021,88,70,158
GOMBE,KALTUNGO,BWITIR PRIMARY SCHOOL,9.83843,11.471499,WANGE,BWITIR,1160710099,Pre-Primary and Primary,Rural,Regular,No,No Source of Safe Water,First Aid Kit,No,No,No,2020/2021,121,135,256
GOMBE,KALTUNGO,SILA WANG PRIMARY SCHOOL,9.897326,11.556386,BAULE,ADJACENT LUNGURE BAULE,1160710100,Pre-Primary and Primary,Rural,Regular,No,No Source of Safe Water,No Health facility,Yes,No,No,2020/2021,97,110,207
GOMBE,KALTUNGO,LUNGURE PRIMARY SCHOOL,9.906793,11.560285,BAULE CENTRAL,LUNGURE,1160710101,Pre-Primary and Primary,Rural,Regular,No,Well,First Aid Kit,Yes,No,No,2020/2021,121,128,249
GOMBE,KALTUNGO,BABELE PRIMARY SCHOOL,9.93108,11.57279,BAULE CENTRAL,ALONG TULA BAULE ROAD,1160710102,Pre-Primary and Primary,Rural,Regular,No,No Source of Safe Water,No Health facility,No,No,No,2020/2021,46,58,104
GOMBE,KALTUNGO,CHINDAKU PRIMARY SCHOOL,9.88525,11.40016,AWAK  SOUTH,"AWAK STREET, CHINDAKU",1160710103,Pre-Primary and Primary,Rural,Regular,No,No Source of Safe Water,No Health facility,No,No,Yes,2020/2021,60,75,135
GOMBE,KALTUNGO,ZAMFARAWA PRIMARY SCHOOL,9.979568,11.486495,AWAK,ALONG SARKIN RAFI ROAD DOGONRUWA,1160710104,Pre-Primary and Primary,Rural,Regular,No,No Source of Safe Water,No Health facility,Yes,No,Yes,2020/2021,170,125,295
GOMBE,KALTUNGO,KANGARI PRIMARY SCHOOL  SABON LAYI AWAK,9.940273,11.447737,AWAK,DOGON RUWA/AWAK ALONG KALTUNGO ROAD,1160710105,Pre-Primary and Primary,Rural,Regular,No,No Source of Safe Water,First Aid Kit,Yes,No,No,2020/2021,167,198,365
GOMBE,KALTUNGO,SABON LAYI AWAK PRIMARY SCHOOL,9.930914,11.44133,AWAK,S/LAYI AWAK,1160710106,Pre-Primary and Primary,Rural,Regular,No,Borehole,First Aid Kit,No,Yes,No,2020/2021,124,116,240
GOMBE,KALTUNGO,MAMMAN SALE PRIMARY SCHOOL,9.909981,11.524273,BAULE CENTRAL,LASKIAME STREET,1160710107,Pre-Primary and Primary,Rural,Regular,No,Other,No Health facility,Yes,No,No,2020/2021,87,60,147
GOMBE,KALTUNGO,UMAR MEMORIAL ISLAMIC PRIMARY SCHOOL,9.814845,11.315049,KALTUNGO WEST,NEAR MAI KALTUNGO'S PALACE,1160710108,Pre-Primary and Primary,Urban,Regular,No,Borehole,First Aid Kit,No,No,No,2020/2021,379,362,741
GOMBE,KALTUNGO,KUTUSE PRIMARY SCHOOL,9.902975,11.53013,BAULE CENTRAL,"KUTUSE, ALONG TULA ROAD",1160710110,Pre-Primary and Primary,Rural,Regular,No,Well,No Health facility,No,No,Yes,2020/2021,82,93,175
GOMBE,KALTUNGO,NAHUTA PRIMARY SCHOOL,9.91166,11.460782,BAULE CENTRAL,NAHUTA,1160710111,Pre-Primary and Primary,Rural,Regular,No,Borehole,First Aid Kit,No,No,No,2020/2021,149,124,273
GOMBE,KALTUNGO,KEWUR PRIMARY SCHOOL,9.96907,11.41451,AWAK,KEWUR,1160710112,Pre-Primary and Primary,Rural,Regular,No,No Source of Safe Water,No Health facility,No,No,No,2020/2021,188,215,403
GOMBE,KALTUNGO,JALINGO BAULE PRIMARY SCHOOL,9.913738,11.540509,BAULE CENTRAL,"SWELI, ADJACENT JALINGO MATERNITY CLINIC",1160710113,Pre-Primary and Primary,Rural,Regular,No,No Source of Safe Water,First Aid Kit,No,Yes,No,2020/2021,130,155,285
GOMBE,KALTUNGO,YABALIRE PRIMARY SCHOOL TULA,9.5286898,11.2903567,TULA,ALONG DOGON RUWA ROAD,1160710114,Pre-Primary and Primary,Rural,Regular,No,No Source of Safe Water,No Health facility,Yes,No,Yes,2020/2021,311,294,605
GOMBE,KALTUNGO,ADARAWA PRIMARY SCHOOL,,,KAMO,ADARAWA,1160710115,Pre-Primary and Primary,Rural,Regular,No,No Source of Safe Water,No Health facility,Yes,No,Yes,2020/2021,56,59,115
GOMBE,KALTUNGO,SHENGE-SHENGE PRIMARY SCHOOL,9.1127,11.42,KAMO  NORTH,SHENGE-SHENGE,1160710116,Pre-Primary and Primary,Rural,Regular,No,No Source of Safe Water,No Health facility,Yes,Yes,No,2020/2021,74,63,137
GOMBE,KALTUNGO,LAFIYA BAULE PRIMARY SCHOOL,,,BAULE CENTRAL,"NEAR DAGACIN DAKTIBE ADAMU GARBA TAULE'S RESIDENCE, LAFIYA BAULE",1160710117,Pre-Primary and Primary,Rural,Regular,No,No Source of Safe Water,First Aid Kit,No,Yes,No,2020/2021,120,150,270
GOMBE,KALTUNGO,SHURKWAM PRIMARY SCHOOL,9.82,11.52,WANGE,SHURKWAM,1160710118,Pre-Primary and Primary,Rural,Regular,No,Borehole,No Health facility,No,Yes,Yes,2020/2021,74,87,161
GOMBE,KALTUNGO,YORIYO PRIMARY SCHOOL,9.81,11.502,WANGE,YORIYO,1160710119,Pre-Primary and Primary,Rural,Regular,No,Borehole,First Aid Kit,No,No,No,2020/2021,187,196,383
GOMBE,KALTUNGO,DAKTIBE PRIMARY SCHOOL,9.848646,11.474323,TULA,ALONG JALINGO BAULE ROAD,1160710120,Pre-Primary and Primary,Rural,Regular,No,No Source of Safe Water,First Aid Kit,No,No,No,2020/2021,88,88,176
GOMBE,KALTUNGO,OBOK-ARGO PRIMARY SCHOOL,9.932445,11.290943,TONGO,KAMPANDI VILLAGE,1160710121,Pre-Primary and Primary,Rural,Regular,No,No Source of Safe Water,First Aid Kit,No,No,No,2020/2021,86,113,199
GOMBE,KALTUNGO,KAMPANDI PRIMARY SCHOOL,9.939218,11.305555,TUNGO,BILLIRI KAMO ROAD KAMPANDI,1160710122,Pre-Primary and Primary,Rural,Regular,No,No Source of Safe Water,No Health facility,No,Yes,Yes,2020/2021,93,115,208
GOMBE,KALTUNGO,KALARING PRIMARY SCHOOL,9.812158,11.309243,KALTUNGO EAST,"BEHIND ECWA CHURCH, KALARING",1160710123,Pre-Primary and Primary,Urban,Regular,No,Borehole,First Aid Kit,No,Yes,Yes,2020/2021,271,322,593
GOMBE,KALTUNGO,POPANDI PRIMARY SCHOOL,9.786876,11.30756,KALTUNGO EAST,ALONG LAPAN ROAD,1160710124,Pre-Primary and Primary,Rural,Regular,No,No Source of Safe Water,First Aid Kit,No,Yes,No,2020/2021,104,96,200
GOMBE,KALTUNGO,BUKKA ARBA'IN PRIMARY SCHOOL,10.276,11.14949,AWAK,"BUKKA ARBAIN, DOGON RUWA, ALONG KALTUNGO ROAD",1160710125,Pre-Primary and Primary,Rural,Regular,No,No Source of Safe Water,First Aid Kit,No,Yes,No,2020/2021,245,211,456
GOMBE,KALTUNGO,LIBITI PRIMARY SCHOOL,9.949032,11.272572,TUNGO,LIBITI,1160710127,Pre-Primary and Primary,Rural,Regular,No,No Source of Safe Water,First Aid Kit,Yes,No,No,2020/2021,69,100,169
GOMBE,KALTUNGO,KOKDE PRIMARY SCHOOL,9742031.0,11374457.0,KALTUNGO EAST,KOKDE,1160710128,Pre-Primary and Primary,Rural,Regular,No,No Source of Safe Water,First Aid Kit,Yes,No,Yes,2020/2021,123,124,247
GOMBE,KALTUNGO,SABON LAYI YIRI PRIMARY SCHOOL,9.7077,11.5326,YIRI,ECWA DCC STREET BAMBAM,1160710129,Pre-Primary and Primary,Rural,Regular,No,Borehole,First Aid Kit,No,No,Yes,2020/2021,148,137,285
GOMBE,KALTUNGO,LATENGUL NOMADIC PRIMARY SCHOOL,9.826011,11.267298,KALTUNGO WEST,LATENGUL,1160710130,Pre-Primary and Primary,Rural,Nomadic (Migrants),No,No Source of Safe Water,First Aid Kit,No,No,No,2020/2021,86,85,171
GOMBE,KALTUNGO,BAGARUWA PRIMARY SCHOOL,9.959804,11.466456,AWAK,DOGON RUWA ALONG KALTUNGO ROAD,1160710131,Pre-Primary and Primary,Rural,Regular,No,No Source of Safe Water,First Aid Kit,Yes,No,No,2020/2021,79,41,120
GOMBE,KALTUNGO,TAKWABLIK PRIMARY SCHOOL,9.820419,11.305707,TURE,"NEAR TURE OKRA, ALONG YOLA ROAD",1160710132,Pre-Primary and Primary,Rural,Nomadic (Migrants),No,No Source of Safe Water,First Aid Kit,Yes,No,No,2020/2021,81,76,157
GOMBE,KALTUNGO,LUGGA IDI NOMADIC PRI. SCHOOL,9.904947,11.381763,AWAK  SOUTH,"LUGGA IDI, AWAK STREET",1160710133,Pre-Primary and Primary,Rural,Nomadic (Migrants),No,No Source of Safe Water,No Health facility,No,No,No,2020/2021,40,28,68
GOMBE,KALTUNGO,TAKUBIN PRIMARY SCHOOL,9.90612,11.445097,BAULE CENTRAL,TAKUBIN,1160710134,Pre-Primary and Primary,Rural,Regular,No,No Source of Safe Water,No Health facility,Yes,No,No,2020/2021,81,98,179
GOMBE,KALTUNGO,MARARRABA PRIMARY SCHOOL,9.7596,11.403448,TURE,TULA JUNCTION ALONG YOLA GOMBE ROAD,1160710135,Pre-Primary and Primary,Rural,Regular,No,No Source of Safe Water,No Health facility,No,No,No,2020/2021,59,44,103
GOMBE,KALTUNGO,EARLY CHILD CARE DEVELOPMENT EDUCATION,,,KALTUNGO WEST,YOLA ROAD OPPOSITE NASARAWA PRIMARY SCHOOL,1160710137,Pre-Primary and Primary,Urban,Regular,No,Borehole,No Health facility,No,No,No,2020/2021,23,25,48
GOMBE,KALTUNGO,KURAN PRIMARY SCHOOL,9.953432,11.42098,AWAK  SOUTH,"KURAN, AWAK STREET",1160710138,Pre-Primary and Primary,Rural,Regular,No,No Source of Safe Water,No Health facility,Yes,No,Yes,2020/2021,101,114,215
GOMBE,KALTUNGO,KWANDIWURIN PRIMARY SCHOOL,9845130.0,11471293.0,TULA,"SABON LAYI, WANGE",1160710139,Pre-Primary and Primary,Rural,Regular,No,No Source of Safe Water,First Aid Kit,No,No,No,2020/2021,89,87,176
GOMBE,KALTUNGO,FITA NOMADIC PRIMARY SCHOOL,9.7158,11.5441,YIRI WARD,BAMBAM ADJECENT TO YOLA ROAD,1160710140,Pre-Primary and Primary,Rural,Nomadic (Migrants),No,No Source of Safe Water,No Health facility,Yes,No,No,2020/2021,72,66,138
GOMBE,KALTUNGO,YAGALAMU NOMADIC,9.87963,11.356677,TURE,"NEAR TURE OKRA, ALONG YOLA ROAD",1160710141,Pre-Primary and Primary,Rural,Nomadic (Migrants),No,No Source of Safe Water,First Aid Kit,No,No,Yes,2020/2021,58,59,117
GOMBE,KALTUNGO,BABELE NOM. PRIMARY SCHOOL,9.931104,11.57286,BAULE CENRAL,BABELE,1160710142,Pre-Primary and Primary,Rural,Nomadic (Migrants),No,No Source of Safe Water,No Health facility,Yes,No,No,2020/2021,44,34,78
GOMBE,KALTUNGO,WUSHI NOMADIC PRIMARY SCHOOL,9.823614,11.8575478,TURE,"WUSHI, ALONG YOLA ROAD",1160710143,Pre-Primary and Primary,Rural,Nomadic (Migrants),No,No Source of Safe Water,No Health facility,Yes,No,No,2020/2021,49,52,101
GOMBE,KALTUNGO,KALTUNGO MODEL PRIMARY SCHOOL KALTUNGO,98.21055,11.293548,KALTUNGO WEST,ALONG YOLA ROAD,1160710153,Pre-Primary and Primary,Urban,Regular,No,Borehole,First Aid Kit,Yes,Yes,No,2020/2021,109,134,243
GOMBE,KALTUNGO,YAKKU PRIMARY SCHOOL,9.82,11.51,WANGE,ECWA CHURCH YAKKU  BWELE,1160710154,Pre-Primary and Primary,Rural,Regular,No,No Source of Safe Water,No Health facility,Yes,No,No,2020/2021,75,60,135
GOMBE,KALTUNGO,LAMBIRBIR NOMADIC PRIMARY SCHOOL,,,KALTUNGO EAST,LAMBIRBIR,1160710156,Pre-Primary and Primary,Rural,Nomadic (Migrants),No,No Source of Safe Water,No Health facility,Yes,No,No,2020/2021,132,135,267
GOMBE,KALTUNGO,GALADIMA YIRI PRIMARY SCHOOL BAMBAM,9.6975,11.51,YIRI,ALONG YOLA ROAD BAMBAM,1160710161,Pre-Primary and Primary,Rural,Regular,Yes,No Source of Safe Water,First Aid Kit,No,Yes,No,2020/2021,165,179,344
GOMBE,KALTUNGO,KWA PRIMARY SCHOOL,9.934395,11.319672,TUNGO,ALONG DOGON ROWA ROAD,1160710162,Pre-Primary and Primary,Rural,Regular,No,No Source of Safe Water,First Aid Kit,Yes,No,No,2020/2021,50,48,98
GOMBE,KALTUNGO,SABONLAYI AWAK ECCD,9.930914,11.44133,KALTUNGO,OPP AWAK AREA COURT,1160710163,Pre-Primary and Primary,Rural,Regular,No,Borehole,No Health facility,No,Yes,Yes,2020/2021,230,188,418
GOMBE,KALTUNGO,KUNINI PRIMARY SCHOOL,9.73399,11.44179,WANGE,ALONG YOLA ROAD FANTAMI KUNINI,1160710164,Pre-Primary and Primary,Rural,Regular,No,No Source of Safe Water,First Aid Kit,Yes,No,No,2020/2021,60,51,111
GOMBE,KALTUNGO,WANGE PILOT SCIENCE PRIMARY SCHOOL,9.845113,11.47087,KALTUNGO,ALONG EMIRS STREET,1160710165,Pre-Primary and Primary,Rural,Regular,No,Other,First Aid Kit,No,Yes,No,2020/2021,177,180,357
GOMBE,KALTUNGO,EARLY CHILD CARE DEVELOPMENT EDUCATION KALTIN,9.9,11.4763,BAULE/KALTIN,OPPOSITE KALTIN PRIMARY SCHOOL,1160710166,Pre-Primary and Primary,Rural,Regular,No,No Source of Safe Water,No Health facility,No,Yes,No,2020/2021,93,112,205
GOMBE,KALTUNGO,BAYUNSE PRIMARY SCHOOL,10.94122,11.518725,BAULE KALTIN,NEAR KALTIN PRIMARY SCHOOL,1160710167,Pre-Primary and Primary,Rural,Regular,No,No Source of Safe Water,No Health facility,No,No,No,2020/2021,100,119,219
GOMBE,KALTUNGO,PILOT SCIENCE PRIMARY SCHOOL KALTUNGO,9.829995,11.298146,KALTUNGO WEST,BEHIND OLUSEGUN OBASANJO STADIUM,1160710168,Pre-Primary and Primary,Urban,Regular,Yes,No Source of Safe Water,First Aid Kit,No,Yes,No,2020/2021,495,454,949
GOMBE,KALTUNGO,TANGA PRIMARY SCHOOL,9.905288,11.436051,AWAK,"DOGON RUWA STREET, ALONG KALTUNGO ROAD, SABONLAYI AWAK",1160710169,Pre-Primary and Primary,Rural,Regular,No,No Source of Safe Water,No Health facility,Yes,No,Yes,2020/2021,100,108,208
GOMBE,KALTUNGO,KWEN PRIMARY SCHOOL,,,YIRI TULA,YIRI,1160710170,Pre-Primary and Primary,Rural,Regular,No,No Source of Safe Water,First Aid Kit,No,No,No,2020/2021,59,67,126
GOMBE,KALTUNGO,FALANG PRIMARY SCHOOL,9.8,11.52,WANGE,BWALE,1160710171,Pre-Primary and Primary,Rural,Regular,No,No Source of Safe Water,First Aid Kit,No,No,No,2020/2021,79,72,151
GOMBE,KALTUNGO,BWAKWANG PRIMARY SCHOOL,9.0,11.0,BAULE KALTIN,ALONG NAHUTA KALTIN ROAD,1160710172,Pre-Primary and Primary,Rural,Regular,No,No Source of Safe Water,No Health facility,Yes,No,No,2020/2021,28,28,56
GOMBE,KALTUNGO,ECCDE LAYIRO,9.821773,11.327975,KALTUNGO WEST,,1160710173,Pre-Primary and Primary,Rural,Regular,No,No Source of Safe Water,No Health facility,No,No,No,2020/2021,64,49,113
GOMBE,KALTUNGO,LAKWANG NOMADIC PRIMARY SCHOOL,,,TUNGO,ALONG KOLWA ROAD,1160710174,Pre-Primary and Primary,Rural,Nomadic (Migrants),No,No Source of Safe Water,No Health facility,No,No,No,2020/2021,43,32,75
GOMBE,KALTUNGO,LOLE PRIMARY SCHOOL,9.7151,11.4916,WANGE,,1160710175,Pre-Primary and Primary,Rural,Regular,No,No Source of Safe Water,No Health facility,Yes,No,Yes,2020/2021,48,64,112
GOMBE,KALTUNGO,LAYIRO POSHERENG,,,KALTUNGO EAST,NEAR EVANGICAL CHURCH WINNING ALL LAYIRO POSHERENG,1160710176,Pre-Primary and Primary,Rural,Regular,No,No Source of Safe Water,Health Clinic,Yes,No,Yes,2020/2021,328,323,651
GOMBE,KALTUNGO,KOCHIYEL NOMADIC PRIMARY SCHOOL KAMO,9.954584,11.396711,KAMO,JAURO CHINDO,1160710177,Pre-Primary and Primary,Rural,Nomadic (Migrants),No,No Source of Safe Water,No Health facility,Yes,No,No,2020/2021,46,40,86
GOMBE,KALTUNGO,SABON LAYI KALAKOROK PRIMARY SCHOOL,9.69599,11.4114,TURE,TURE BALAM,1160710178,Pre-Primary and Primary,Rural,Regular,No,No Source of Safe Water,No Health facility,No,No,No,2020/2021,23,26,49
GOMBE,KALTUNGO,LAH PRIMARY SCHOOL,,,KAMO,ALONG DOGON RUWA ROAD ECWA CHURCH LAH,1160710179,Pre-Primary and Primary,Rural,Regular,No,No Source of Safe Water,No Health facility,Yes,No,No,2020/2021,27,32,59
GOMBE,KALTUNGO,S. D. KASSIM MEMORIAL PRIMARY SCHOOL,9.7884975,11.378903,TURE,YOLA ROAD BEHIND ECWA CHURCH TURE BALAM,1160710180,Pre-Primary and Primary,Rural,Regular,No,Borehole,No Health facility,No,No,No,2020/2021,99,109,208
GOMBE,KALTUNGO,ECCDE UMAR MEMORIAL,9.814366,11.315249,KALTUNGO EAST,NEAR EMIRS PALACE KALTUNGO,1160710182,Pre-Primary and Primary,Urban,Regular,No,Pipe borne Water,First Aid Kit,No,No,No,2020/2021,52,38,90
GOMBE,KALTUNGO,KALUWA ISLAMIYYA MAKERA,,,KALTUNGO EAST,ALONG YOLA ROAD,1160710185,Pre-Primary and Primary,Rural,Regular,No,No Source of Safe Water,No Health facility,Yes,No,No,2020/2021,69,68,137
GOMBE,KALTUNGO,BULANYE PRIMARY SCHOOL,9.831668,11.465229,WANGE,BULANYE STREET,1160710187,Pre-Primary and Primary,Rural,Regular,No,No Source of Safe Water,No Health facility,No,No,Yes,2020/2021,22,24,46
GOMBE,KALTUNGO,TSANGAYA LUGGA IDI,9.903632,11.381058,AWAK SOUTH,LUGGA IDI AWAK,1160710188,Pre-Primary and Primary,Rural,Nomadic (Migrants),No,No Source of Safe Water,No Health facility,No,No,Yes,2020/2021,45,19,64
GOMBE,KALTUNGO,POKANJE NOMADIC SCHOOL,9878312.0,11264475.0,TUNGO,POKANJE ALONG DOGON RUWA ROAD,1160710189,Pre-Primary and Primary,Rural,Nomadic (Migrants),No,No Source of Safe Water,No Health facility,Yes,No,Yes,2020/2021,35,45,80
GOMBE,KALTUNGO,ECCDE TURE MAI,9.815015,11.377682,TURE,TURE MAI ALONG YOLA ROAD,1160710190,Pre-Primary and Primary,Rural,Regular,No,No Source of Safe Water,First Aid Kit,Yes,Yes,No,2020/2021,76,82,158
GOMBE,KALTUNGO,TUKMU NURSERY PRIMARY SCHOOL LAPANDIMTAI,9.81332,11.320587,KALTUNGO WEST,BEHIND EMIRS PALACE LAPANDIMTAI,1160710191,Pre-Primary and Primary,Urban,Regular,No,No Source of Safe Water,No Health facility,Yes,Yes,No,2020/2021,73,95,168
GOMBE,KALTUNGO,BALANKIYA NOMADIC,9.743312,11.407182,BULE KALTIN,NEAR SABON GARI WANGE PRIMARY SCHOOL,1160710193,Pre-Primary and Primary,Rural,Nomadic (Migrants),No,No Source of Safe Water,No Health facility,Yes,No,No,2020/2021,51,39,90
GOMBE,KALTUNGO,GJSS LOBWI,9.801,11.5,WANGE,BWELE,1160720001,Junior Secondary,Rural,Regular,No,Borehole,No Health facility,No,Yes,No,2020/2021,75,76,151
GOMBE,KALTUNGO,GJSS POKWANGLI,9.928395,11.26837,TUNGO,POKWANGLI,1160720002,Junior Secondary,Rural,Regular,Yes,No Source of Safe Water,First Aid Kit,No,Yes,No,2020/2021,81,67,148
GOMBE,KALTUNGO,GJSS WANGE TULA,9.795797,11.281998,KALTUNGO,ANGUWAN KANTI,1160720003,Junior Secondary,Rural,Regular,No,No Source of Safe Water,First Aid Kit,No,Yes,Yes,2020/2021,175,169,344
GOMBE,KALTUNGO,GJSS SHURKWAM TULA,9.81,11.52,WANGE,,1160720004,Junior Secondary,Rural,Regular,No,Borehole,First Aid Kit,No,Yes,No,2020/2021,89,80,169
GOMBE,KALTUNGO,GJSS JALINGO KAMO,10.006,11.3479,KAMO,ALONG JAURO SAINI ROAD,1160720005,Junior Secondary,Rural,Regular,Yes,No Source of Safe Water,No Health facility,No,No,Yes,2020/2021,77,32,109
GOMBE,KALTUNGO,GJSS NAHUTA BAULE TULA,9.911252,11.459877,BULE-KALTIN,BAULE-KALTIN ROAD,1160720006,Junior Secondary,Rural,Regular,No,No Source of Safe Water,No Health facility,No,No,No,2020/2021,146,92,238
GOMBE,KALTUNGO,GJSS S/GARI WANGE,9.853413,11.408282,TULA-BULE KALTIN,OFF AWAK ROAD,1160720007,Junior Secondary,Rural,Regular,No,Borehole,First Aid Kit,No,Yes,No,2020/2021,50,30,80
GOMBE,KALTUNGO,GJSS LAFIYA DAKTUBE,9.8,11.47,BAULE CENTRAL,ALONG JALINGO ROAD,1160720008,Junior Secondary,Rural,Regular,No,No Source of Safe Water,No Health facility,No,No,No,2020/2021,70,52,122
GOMBE,KALTUNGO,GJSS TURE OKRA,9.831645,11.205454,TURE,ALONG YOLA ROAD,1160720009,Junior Secondary,Rural,Regular,No,Borehole,First Aid Kit,No,No,No,2020/2021,85,56,141
GOMBE,KALTUNGO,GJSS JALINGO BAULE,9.912857,11.325139,BAULE CENTRAL,,1160720010,Junior Secondary,Rural,Regular,No,Other,First Aid Kit,No,Yes,No,2020/2021,106,97,203
GOMBE,KALTUNGO,GJSS TURE BALAM,9.80085,11.379715,TURE,TURE BALAM,1160720011,Junior Secondary,Rural,Regular,No,Borehole,First Aid Kit,No,Yes,No,2020/2021,78,54,132
GOMBE,KALTUNGO,GJSS LAKWEME,9.71835,11.4104,KALTUNGO EAST,YOLA ROAD KALTUNGO,1160720012,Junior Secondary,Rural,Regular,No,No Source of Safe Water,First Aid Kit,No,Yes,No,2020/2021,116,76,192
GOMBE,KALTUNGO,GJSS LUNGURE,9.907026,11.560131,BAULE CENTRAL,ALONG BALANGA DAM ROAD,1160720013,Junior Secondary,Rural,Regular,No,Borehole,No Health facility,No,Yes,Yes,2020/2021,80,69,149
GOMBE,KALTUNGO,GJSS KAMPANDI,9.939218,11305555.0,TUNGO,"DOGON RUWA STREET, KAMPANDI AREA",1160720014,Junior Secondary,Rural,Regular,No,No Source of Safe Water,No Health facility,No,Yes,No,2020/2021,49,40,89
GOMBE,KALTUNGO,GJSS LAYIRO,,,KALTUNGO EAST,LAYIRO KALTUNGO,1160720016,Junior Secondary,Rural,Regular,No,Borehole,No Health facility,Yes,Yes,No,2020/2021,64,53,117
GOMBE,KALTUNGO,GJSS TURE MAI,9.845015,11.776823,TURE,TURE MAI NEAR ECWA CHURCH TURE MAI,1160720017,Junior Secondary,Rural,Regular,No,No Source of Safe Water,First Aid Kit,No,Yes,Yes,2020/2021,78,56,134
GOMBE,KALTUNGO,GJSS POPANDI,9.7880102,11.307948,KALTUNGO EAST,,1160720018,Junior Secondary,Urban,Regular,No,No Source of Safe Water,First Aid Kit,No,No,No,2020/2021,89,84,173
GOMBE,KALTUNGO,GJSS BUKKA ARBA'IN,10.27611,11.14949,AWAK,opp. maternity dogo ruwa,1160720019,Junior Secondary,Rural,Regular,No,No Source of Safe Water,First Aid Kit,No,Yes,No,2020/2021,150,67,217
GOMBE,KALTUNGO,GJSS PURMAI,9.662851,11.357179,KALTUNGO EAST,,1160720020,Junior Secondary,Rural,Regular,No,No Source of Safe Water,No Health facility,Yes,Yes,Yes,2020/2021,73,80,153
GOMBE,KALTUNGO,GJSS BAULE GARI TULA,9.860105,11.482482,TULA,BAULE GARI TULA STREET,1160720021,Junior Secondary,Rural,Regular,No,No Source of Safe Water,First Aid Kit,No,No,Yes,2020/2021,139,149,288
GOMBE,KALTUNGO,GJSS S/LAYI AWAK,9.924235,11.456097,AWAK,S/LAYI AWAK,1160720022,Junior Secondary,Rural,Regular,No,No Source of Safe Water,First Aid Kit,No,No,No,2020/2021,90,135,225
GOMBE,KALTUNGO,GJSS SOBLONG,9.87302,11.40163,AWAK,ALONG DOGON RUWA,1160720023,Junior Secondary,Rural,Regular,No,No Source of Safe Water,First Aid Kit,,No,No,2020/2021,117,89,206
GOMBE,KALTUNGO,GJSS KALORGU,9.821876,11.292033,KALTUNGO WEST,NEAR ECWA KALORGU KALTUNGO,1160720024,Junior Secondary,Rural,Regular,No,No Source of Safe Water,First Aid Kit,No,Yes,No,2020/2021,68,67,135
GOMBE,KALTUNGO,GJSS NASARAWA KALTUNGO,9.829995,11.298146,KALTUNGO WEST,ALONG YOLA ROAD,1160720025,Junior Secondary,Urban,Regular,No,Borehole,First Aid Kit,No,Yes,No,2020/2021,171,158,329
GOMBE,KALTUNGO,GJSS BAULE KALTIN,9.91,11.47757,BAULE KALTIN,BEHIND KALTIN PRIMARY SCHOOL,1160720026,Junior Secondary,Rural,Regular,Yes,No Source of Safe Water,No Health facility,No,Yes,Yes,2020/2021,127,164,291
GOMBE,KALTUNGO,GJSS KALTUNGO CENTRAL,9.829995,11.298146,KALTUNGO WEST,,1160720027,Junior Secondary,Urban,Regular,No,Borehole,First Aid Kit,No,Yes,No,2020/2021,158,148,306
GOMBE,KALTUNGO,GJSS GALADIMA YIRI,9.697659,11.510881,YIRI WARD,BAMBAM ALONG YOLA ROAD,1160720028,Junior Secondary,Rural,Regular,No,No Source of Safe Water,First Aid Kit,No,Yes,Yes,2020/2021,202,163,365
GOMBE,KALTUNGO,GJSS KALARING,9.81187,11.309458,KALTUNGO EAST,KALARING,1160720029,Junior Secondary,Urban,Regular,No,Borehole,First Aid Kit,No,Yes,No,2020/2021,199,190,389
GOMBE,KALTUNGO,GJSS GUJUBA,9.9440215,11.328155,KAMO,BILLIRI AWAK ROAD,1160720030,Junior Secondary,Rural,Regular,No,No Source of Safe Water,First Aid Kit,No,Yes,No,2020/2021,158,138,296
GOMBE,KALTUNGO,GJSS KWANG,9.929971,11.458279,BULE KALTIN,ALONG JALINGO BAULE ROAD,1160720031,Junior Secondary,Rural,Regular,No,No Source of Safe Water,No Health facility,No,Yes,Yes,2020/2021,85,88,173
GOMBE,KALTUNGO,GJSS YIRI,9.8,11.48,YIRI,YIRI TULA,1160720032,Junior Secondary,Rural,Regular,No,Other,No Health facility,No,No,Yes,2020/2021,75,68,143
GOMBE,KALTUNGO,GJSS BANDARA,9.742031,11.374457,KALTUNGO EAST,ALONG LAYIRO POSHERENG ROAD,1160720033,Junior Secondary,Rural,Regular,No,No Source of Safe Water,No Health facility,No,Yes,No,2020/2021,68,57,125
GOMBE,KALTUNGO,GJSS TARMANA,9813807.0,11303617.0,KALTUNGO WEST,,1160720034,Junior Secondary,Urban,Regular,No,No Source of Safe Water,First Aid Kit,No,Yes,No,2020/2021,42,48,90
GOMBE,KALTUNGO,GJSS MOSSO,9.976584,11.307179,KAMO,ALONG BILLIRI DOGON RUWA ROAD,1160720035,Junior Secondary,Rural,Regular,No,No Source of Safe Water,First Aid Kit,No,Yes,Yes,2020/2021,64,47,111
GOMBE,KALTUNGO,GJSS KALTUNGO MODEL,9.821038,11.311394,KALTUNGO WEST,ALONG YOLA ROAD,1160720036,Junior Secondary,Urban,Regular,No,Borehole,First Aid Kit,No,Yes,Yes,2020/2021,92,72,164
GOMBE,KALTUNGO,GJSS WILI,9.912247,11.265258,TUNGO,BILLIRI DOGONRUWA ROAD OFF LASHIKUCDAK,1160720037,Junior Secondary,Rural,Regular,No,No Source of Safe Water,No Health facility,No,Yes,No,2020/2021,56,38,94
GOMBE,KALTUNGO,GJSS LATARIN,,,KAMO,ALONG GUJUBA-KAMO ROAD,1160720038,Junior Secondary,Rural,Regular,No,No Source of Safe Water,First Aid Kit,No,Yes,Yes,2020/2021,61,54,115
GOMBE,KALTUNGO,GJSS YARKOMO,9.1127,11.42,Kamo,Along Billiri Dogon Ruwa Road Kaltungo,1160720039,Junior Secondary,Rural,Regular,No,No Source of Safe Water,First Aid Kit,No,Yes,Yes,2020/2021,36,49,85
GOMBE,KALTUNGO,GOVERNMENT JUNIOR SECONDARY SCHOOL KEWUR,9.96916,11.414505,AWAK,ALONG KAMO ROAD DAURA JUNCTION,1160720040,Junior Secondary,Rural,Regular,No,No Source of Safe Water,No Health facility,No,Yes,No,2020/2021,36,29,65
GOMBE,KALTUNGO,GJSS JAURO KORAU,10.00899,11.52877,AWAK,JAURO KORAU AWAK,1160720041,Junior Secondary,Rural,Regular,No,No Source of Safe Water,No Health facility,Yes,Yes,Yes,2020/2021,28,14,42
GOMBE,KALTUNGO,GJSS BEKUNTIN,9.7159,11.4923,KALTUNGO EAST,BEKUNTIN,1160720042,Junior Secondary,Rural,Regular,No,No Source of Safe Water,First Aid Kit,No,Yes,No,2020/2021,44,37,81
GOMBE,KALTUNGO,GJSS POSHERENG,9.7909667,11.313538,KALTUNGO EAST,LAPAN ROAD,1160720043,Junior Secondary,Rural,Regular,No,No Source of Safe Water,No Health facility,No,No,Yes,2020/2021,68,53,121
GOMBE,KALTUNGO,GJSS BIRWAI KAMO,10.01245,11.404152,KAMO,ALONG KURI ROAD NORTH EAST OF PATUWANA KAMO,1160720044,Junior Secondary,Rural,Regular,No,No Source of Safe Water,No Health facility,No,Yes,No,2020/2021,46,43,89
GOMBE,KALTUNGO,GJSS SABON GARI BULE,11.408282,,BULE KALTIN,OFF AWAK ROAD,1160720045,Junior Secondary,Rural,Regular,No,Other,No Health facility,No,Yes,No,2020/2021,49,32,81
GOMBE,KALTUNGO,GCDSS KALTUNGO,9.820924,11.290568,KALTUNGO WEST,KALTUNGO,1160730001,Senior Secondary,Urban,Regular,No,Borehole,First Aid Kit,No,No,No,2020/2021,387,355,742
GOMBE,KALTUNGO,GDSS GUJUBA,99407033.0,11331402.0,KAMO,BILLIRI DOGONGUN RUWA ROAD GUJUBA,1160730002,Senior Secondary,Rural,Regular,No,No Source of Safe Water,First Aid Kit,No,No,No,2020/2021,149,72,221
GOMBE,KALTUNGO,GDSS BAULE KALTIN,9.91751,11.477578,BAULE KALTIN,ALONG BANKUWE ROAD,1160730003,Senior Secondary,Rural,Regular,No,No Source of Safe Water,No Health facility,No,Yes,No,2020/2021,77,88,165
GOMBE,KALTUNGO,GGSS KALTUNGO,9.829995,11.298146,KALTUNGO WEST,,1160730005,Senior Secondary,Urban,Regular,No,Borehole,Health Clinic,No,No,No,2020/2021,0,630,630
GOMBE,KALTUNGO,GGSS TULA,9836043.0,11462630.0,WANGE,TULA WANGE ROAD,1160730006,Senior Secondary,Rural,Regular,No,Borehole,Health Clinic,No,No,Yes,2020/2021,0,1173,1173
GOMBE,KALTUNGO,GSSS KALTUNGO,9.803363,11.317727,KALTUNGO EAST,MAI DRIVE KALTUNGO,1160730007,Senior Secondary,Urban,Regular,No,Borehole,First Aid Kit,No,No,No,2020/2021,608,0,608
GOMBE,KALTUNGO,GOVT DAY SECONDARY SCHOOL BAULE,9.86022,11.482442,TULA,TULA BAULE GARI STREET,1160730008,Senior Secondary,Rural,Regular,No,No Source of Safe Water,First Aid Kit,No,Yes,No,2020/2021,85,70,155
GOMBE,KALTUNGO,GSS AWAK,,,AWAK,DOGON RUWA ALONG KALTUNGO ROAD,1160730009,Senior Secondary,Rural,Regular,No,Borehole,First Aid Kit,Yes,No,No,2020/2021,418,0,418
GOMBE,KALTUNGO,GDSS TURE  MAI,9.835027,11.387683,TURE,ALONG YOLA ROAD,1160730011,Senior Secondary,Rural,Regular,No,No Source of Safe Water,First Aid Kit,No,Yes,No,2020/2021,76,64,140
GOMBE,KALTUNGO,GOVERNMENT DAY SECONDARY SCHOOL YIRI TULA,9.81,11.47,YIRI,WUNDUL KWEN,1160730012,Senior Secondary,Rural,Regular,No,No Source of Safe Water,First Aid Kit,No,Yes,No,2020/2021,48,36,84
GOMBE,KALTUNGO,GDSS KALARING,9.811677,11.309042,KALTUNGO EAST,ALONG DAGACHIN KALARING ROAD,1160730013,Senior Secondary,Urban,Regular,No,Borehole,First Aid Kit,No,Yes,No,2020/2021,280,272,552
GOMBE,KALTUNGO,GDSS MOSSO KAMO,9.976568,11.307126,KAMO,ALONG BILLIRI DOGON RUWA ROAD,1160730014,Senior Secondary,Rural,Regular,No,No Source of Safe Water,No Health facility,No,Yes,No,2020/2021,32,18,50
GOMBE,KALTUNGO,GDSS PURMAI,9687851.0,11357199.0,KALTUNGO EAST,PURMAI,1160730015,Senior Secondary,Rural,Regular,No,No Source of Safe Water,No Health facility,Yes,Yes,Yes,2020/2021,55,85,140
GOMBE,KALTUNGO,GDSS POKWANGLI,9.9,11.26,TUNGO,ALONG DOGON RUWA ROAD,1160730016,Senior Secondary,Rural,Regular,No,No Source of Safe Water,First Aid Kit,No,Yes,Yes,2020/2021,60,54,114
GOMBE,KALTUNGO,KILANG HIGH SCH. NUR/PRI,9.804593,11.310703,KALTUNGO EAST,OKRAH KALTUNGO,1160740001,Private Education,Urban,Regular,No,Borehole,First Aid Kit,,No,,2020/2021,94,76,170
GOMBE,KALTUNGO,VICTORY NUR/PRI SCHOOL,,,KALTUNGO EAST,KALARING KALTUNGO,1160740003,Private Education,Urban,Regular,No,Borehole,First Aid Kit,,No,,2020/2021,83,89,172
GOMBE,KALTUNGO,BRIGHT FUTURE INTERNATIONAL ACADEMY,9.829995,11.298146,KALTUNGO WEST,NO.I SHEHU AWAK STREET ALONG LGA STREET,1160740004,Private Education,Urban,Regular,No,No Source of Safe Water,First Aid Kit,,No,,2020/2021,124,113,237
GOMBE,KALTUNGO,NAFAK N/P SCHOOL,9.8174,11.327247,KALTUNGO WEST,"LAPANDINTAI, KALTUNGO",1160740006,Private Education,Urban,Regular,No,No Source of Safe Water,First Aid Kit,,No,,2020/2021,49,48,97
GOMBE,KALTUNGO,KINGS ACADEMY N/P SCHOOL,9.826323,11.304011,KALTUNGO WEST,"LAMBU QTRS, KALTUNGO",1160740008,Private Education,Rural,Regular,No,Well,No Health facility,,No,,2020/2021,22,28,50
GOMBE,KALTUNGO,WALTER GAWANS NUSERY AND PRIMARY SCHOOL,9.1323,11.4815,KALTUNGO WEST,OPPOSITE KALTUNGO MEDICAL CENTRE,1160740009,Private Education,Urban,Regular,No,Borehole,First Aid Kit,,No,,2020/2021,41,41,82
GOMBE,KALTUNGO,EDUCATIONAL LADDER N/P SCH.,,,KALTUNGO WEST,"SOLAR SYSTEM, BANGANJE",1160740010,Private Education,Urban,Regular,No,Borehole,First Aid Kit,,No,,2020/2021,133,151,284
GOMBE,KALTUNGO,YASHI MEMORIAL ACADEMY SCHOOL JALINGO TULA,9.918551,11.332773,BAULE CENTRAL,"JALINGO, BAULE TULA",1160740016,Private Education,Rural,Regular,No,Well,First Aid Kit,,Yes,,2020/2021,128,103,231
GOMBE,KALTUNGO,DOGON BAYA NUR/PRI SCHOOL,,,TULA,BAULE TULA,1160740017,Private Education,Rural,Regular,Yes,No Source of Safe Water,First Aid Kit,,No,,2020/2021,91,102,193
GOMBE,KALTUNGO,"CHRIST ANGLICAN NUR/PRI SCH, BAMBAM",9.7016,11.5309,BAMBAM YIRI WARD,BAMBAM TOWN,1160740018,Private Education,Rural,Regular,No,No Source of Safe Water,First Aid Kit,,No,,2020/2021,240,171,411
GOMBE,KALTUNGO,SAINT STEPHEN'S ACADEMIC N/P SCH,98.47046,11.471346,TULA,GRA BAIRKI,1160740019,Private Education,Rural,Regular,No,No Source of Safe Water,First Aid Kit,,No,,2020/2021,98,96,194
GOMBE,KALTUNGO,MAKANI NUR/PRI SCHOOL,9.917915,11.473992,BULE KALTIN,KALTIN BAULE TULA,1160740020,Private Education,Rural,Regular,No,Borehole,First Aid Kit,,No,,2020/2021,39,41,80
GOMBE,KALTUNGO,ECWA NUR/PRI SCH. TIYE BAULE TULA,9.5392,11.3029,,BAULE TULA,1160740022,Private Education,Rural,Regular,No,No Source of Safe Water,No Health facility,,No,,2020/2021,31,27,58
GOMBE,KALTUNGO,TSANGAYA BAGANJE 2,9.82,11.311,KALTUNGO WEST,NO 2 YOLA ROAD KALTUNGO,1160740025,Private Education,Urban,Regular,No,Borehole,First Aid Kit,,No,,2020/2021,202,184,386
GOMBE,KALTUNGO,KINGS ACADEMY INTERNATIONAL COLLEGE,9.826323,11.304011,KALTUNGO,BEHIND TERMANA OLIVE HOTEL KALTUNGO,1160740026,Private Education,Urban,Regular,No,Well,No Health facility,,No,,2020/2021,220,211,431
GOMBE,KALTUNGO,TRUSTEE MISHEAL LAMAYI ACADEMY,,,KALTUNGO WEST,KALORGU KALTUNGO,1160740027,Private Education,Urban,Regular,No,Borehole,Health Clinic,,No,,2020/2021,155,145,300
GOMBE,KALTUNGO,KANAR HERITAGE ACADEMY KALTUNGO,9.818795,11.329655,KALTUNGO WEST,BEHIND SHONGOM MICRO FINANCE,1160740028,Private Education,Urban,Regular,No,Borehole,First Aid Kit,,No,,2020/2021,165,140,305
GOMBE,KALTUNGO,KILANG HIGH SCHOOL,9.804493,11.310603,KALTUNGO EAST,OKRA KALTUNGO ALONG POPANDI ROAD,1160740029,Private Education,Urban,Regular,No,Borehole,No Health facility,,No,,2020/2021,39,45,84
GOMBE,KALTUNGO,ECWA KWARI MA'ORI MEMORIAL SEC SCH,9.7067,11.5343,YIRI WARD,P.O.BOX 107 GOMBE STATE,1160740030,Private Education,Rural,Regular,No,Borehole,First Aid Kit,,No,,2020/2021,129,157,286
GOMBE,KALTUNGO,TUNGO INTERNATIONAL ACADEMY,9.929338,11.264373,TUNGO WARD,BILLIRI ALONG DOGON RUWA ROAD,1160740033,Private Education,Rural,Regular,No,Other,First Aid Kit,,Yes,,2020/2021,69,52,121
GOMBE,KALTUNGO,ECWA CRAWFORD SECONDARY SCHOOL,9.826373,11.303947,KALTUNGO WEST,BEHIND FITST BANK PLC KALTUNGO,1160740034,Private Education,Urban,Regular,No,Borehole,Health Clinic,,No,,2020/2021,160,165,325
GOMBE,KALTUNGO,COLLEGE FOR ARABIC AND ISLAMIC STUDIES,9.816118,11.323612,KALTUNGO WEST,LAPANDI MTAI,1160740035,Private Education,Urban,Regular,No,Borehole,First Aid Kit,,No,,2020/2021,109,187,296
GOMBE,KALTUNGO,FOMWAN NURSERY PRIMARY SCHOOL KALTUNGO,9.815084,11.314568,KALTUNGO WEST,ADJACENT MAIS PALACE KALTUNGO,1160740036,Private Education,Urban,Regular,Yes,Borehole,First Aid Kit,,No,,2020/2021,55,50,105
GOMBE,KALTUNGO,ECWA N/P SCHOOL BALAM,9.795765,11.380963,KALTUNGO,BALAM ALONG YOLA ROAD,1160740037,Private Education,Rural,Regular,No,Borehole,First Aid Kit,,No,,2020/2021,81,94,175
GOMBE,KALTUNGO,YOLAH ACADEMY,9.831813,11.36557,KALTUNGO,OPPOSITE ROAD SAFETY ALONG YOLA ROAD,1160740038,Private Education,Rural,Regular,No,Borehole,First Aid Kit,,No,,2020/2021,49,39,88
GOMBE,KALTUNGO,ASAS N/P SCHOOL KLATUNGO,9.1679,11.4968,KALTUNGO,JUMA'AT MOSQUE LAMBU TERMANA KALTUNGO,1160740040,Private Education,Urban,Regular,No,Well,First Aid Kit,,No,,2020/2021,64,81,145
GOMBE,KALTUNGO,ECWA NOI NURSERY AND PRIMARY SCHOOL,9.7013,11.5345,YIRI,GALADIMA YIRI STREET,1160740041,Private Education,Rural,Regular,No,No Source of Safe Water,First Aid Kit,,No,,2020/2021,89,92,181
GOMBE,KALTUNGO,NURUL ISLAM LUNGUDE BAULE,9.897326,11.556386,TULA,LUNGUDE BAULE,1160740044,Private Education,Rural,Islamiyya integrated,No,No Source of Safe Water,No Health facility,,No,,2020/2021,20,118,138
GOMBE,KALTUNGO,JIBWIS MARJA'US SUNNAH ISLAMIYA WANGE,9.8451,11.4127,KALTUNGO,ADJECENT EMIR PALCE,1160740046,Private Education,Rural,Islamiyya integrated,No,No Source of Safe Water,First Aid Kit,,No,,2020/2021,24,21,45
GOMBE,KALTUNGO,PAN MANA N/P SCHOOL POSHEREN,9.794,11.31,KALTUNGO,KWILINDI DTREET POSHERENG KALTUNGO,1160740048,Private Education,Urban,Regular,No,No Source of Safe Water,No Health facility,,No,,2020/2021,33,64,97
GOMBE,KALTUNGO,HASSAN MUSA MEMORIAL N/P SCHOOL KALTIN,9.9,11.47,KALTUNGO,MAIN MARKET ROAD,1160740049,Private Education,Rural,Islamiyya integrated,No,No Source of Safe Water,No Health facility,,No,,2020/2021,51,33,84
GOMBE,KALTUNGO,ECWA N/P SCHOOL DINGE,99.4148,1.13278,KALTUNGO,DINGE,1160740050,Private Education,Rural,Regular,No,Borehole,No Health facility,,No,,2020/2021,92,72,164
GOMBE,KALTUNGO,MALAM ZAKARIYA ISLAMIYA,,,KALTUNGO EAST,EMIRS PALACE,1160740051,Private Education,Urban,Regular,Yes,Borehole,First Aid Kit,,Yes,,2020/2021,78,59,137
GOMBE,KALTUNGO,KALUWA ISLAMIYYA PRIMARY SCHOOL,,,KALTUNGO EAST,KALUWA,1160740052,Private Education,Rural,Regular,No,No Source of Safe Water,No Health facility,,No,,2020/2021,81,78,159
GOMBE,KALTUNGO,MALAM ISHAHKU MEMORIAL ISLAMIYYA,,,KALTUNGO WEST,LAPADIN TAI NEAR EMIRS PALACE KALTUNGO,1160740053,Private Education,Urban,Islamiyya integrated,Yes,No Source of Safe Water,First Aid Kit,,Yes,,2020/2021,18,15,33
GOMBE,KALTUNGO,MALLAM ABDULLAHI ALARAMMA,,,KALTUNGO WEST,NASARA ALONG YOLA ROAD KALTUNGO,1160740055,Private Education,Urban,Islamiyya integrated,Yes,Borehole,No Health facility,,No,,2020/2021,25,10,35
GOMBE,KALTUNGO,SHEHU AWAK MEMORIAL N/P SCHOOL,9.8240342,11.3184378,KALTUNGO WEST,DOGON RUWA ALONG KALTUNGO ROAD,1160740058,Private Education,Rural,Regular,Yes,Pipe borne Water,First Aid Kit,,Yes,,2020/2021,218,223,441
GOMBE,KALTUNGO,AMINU MOHAMMED HASSAN MEMORIAL ISLAMYIYA,9.819851,11.300052,KALTUNGOWEST,ALONG OLD EMIR'SPALACE KALORGU,1160740059,Private Education,Rural,Science and Technology College,No,No Source of Safe Water,First Aid Kit,,No,,2020/2021,27,57,84
GOMBE,KALTUNGO,ISLAMIYA TULA YIRI BAMBAM,,,KALTUNGO,ANGUWAN KANO BAMBAM,1160740061,Private Education,Rural,Islamiyya integrated,No,Well,First Aid Kit,,No,,2020/2021,76,120,196
GOMBE,KALTUNGO,ST. JOHNS N/P SCHOOL POPANDI,9.78178,11.306757,KALTUNGO EAST,"ALONG LAIRO ROAD, POPANDI",1160740062,Private Education,Urban,Regular,No,Well,First Aid Kit,,No,,2020/2021,111,140,251
GOMBE,KALTUNGO,PANIEL NUSERY AND PRIMARY SCHOOL,9.1534,11.4379,KALTUNGO WEST,BEHIND ECWA CHURCH BANGANJE,1160740063,Private Education,Urban,Regular,No,Borehole,First Aid Kit,,No,,2020/2021,36,44,80
GOMBE,KALTUNGO,GUJI MEMORIAL N/P SCHOOL,9.816281,11.310972,KALTUNGO WEST,MAIN MARKET KALTINGO,1160740064,Private Education,Urban,Regular,No,No Source of Safe Water,First Aid Kit,,No,,2020/2021,63,87,150
GOMBE,KALTUNGO,WILI NURSERY PRIMARY SCHOOL,,,KALTUNGO,WILI ECWA CURCH,1160740065,Private Education,Rural,Regular,No,Borehole,First Aid Kit,,No,,2020/2021,124,118,242
GOMBE,KALTUNGO,ECWA N/P SCHOOL BAGANJE,9.1132,11.4121,KALTUNGO WEST,ECWA BANGANJE,1160740066,Private Education,Urban,Regular,No,Borehole,First Aid Kit,,No,,2020/2021,52,44,96
GOMBE,KALTUNGO,ECWA NUSERY AND PRIMARY SCHOOL POKWANGLI,9.932375,11267847.0,KALTUNGO,ALONG GUJUBA ROAD,1160740067,Private Education,Rural,Regular,No,Pipe borne Water,First Aid Kit,,No,,2020/2021,135,116,251
GOMBE,KALTUNGO,ECWA NUR/PRI. AND JUNIOR SEC. SCHOOL SABON LAYI KALTUNGO,9.820471,11.31566,KALTUNGO WEST,BEHIND KALTUNGO LGA,1160740068,Private Education,Urban,Regular,No,Borehole,First Aid Kit,,Yes,,2020/2021,104,82,186
GOMBE,KALTUNGO,EDITH EDWARD N/P SCHOOL,9.820823,11.29261,KALTUNGO WEST,,1160740070,Private Education,Urban,Regular,No,Borehole,First Aid Kit,,No,,2020/2021,34,37,71
GOMBE,KALTUNGO,ECWA TOGOR N/P SCHOOL,9.8225,11.301,KALTUNGO EAST,,1160740071,Private Education,Urban,Regular,No,Borehole,First Aid Kit,,Yes,,2020/2021,105,109,214
GOMBE,KALTUNGO,MUHAMMAD ISLAMIYYA PRIMARY SCHOOL  KALRAGU,,,KALTUNGO WEST,ALONG OLD ENIR'S PALACE,1160740077,Private Education,Urban,Islamiyya integrated,No,Borehole,First Aid Kit,,No,,2020/2021,27,58,85
GOMBE,KALTUNGO,KARAMS ACADEMY POPABI,9.790355,11.29978,KALTUNGO EAST,KARAMS,1160740078,Private Education,Rural,Regular,No,Borehole,First Aid Kit,,No,,2020/2021,52,53,105
GOMBE,KALTUNGO,KALMIN ECWA NURSERY SCHOOL,11.45,,BULE KALTIN,NAHUTA ALONG BULE KALTIN ROAD,1160740079,Private Education,Rural,Regular,No,No Source of Safe Water,No Health facility,,No,,2020/2021,117,93,210
GOMBE,KALTUNGO,SAUKAKU ISLAMIYA SILAWANG,,,BAULE CENTRAL,ALONG LUNGURE SILAWANG ROAD,1160740080,Private Education,Rural,Islamiyya integrated,No,No Source of Safe Water,No Health facility,,No,,2020/2021,39,46,85
GOMBE,KALTUNGO,EMS CHILDREN SCHOOL LAKWEME,9.70887,11.42235,TURE,GOMBE YOLA ROAD LAKWEME,1160740081,Private Education,Rural,Regular,No,Borehole,First Aid Kit,,No,,2020/2021,53,30,83
GOMBE,KALTUNGO,BAIMA AYAM SECONDARY SCHOOL BAMBAM,,,YIRI,YIRI/YOLA ROAD,1160740082,Private Education,Rural,Regular,No,Borehole,First Aid Kit,,No,,2020/2021,7,8,15
GOMBE,KALTUNGO,CENTRE FOR THE DEAF KALTUNGO,,,KALTUNGO WEST,OPPOSITE NEPA YOLA-GOMBE ROAD,1160740086,Private Education,Urban,Regular,Yes,Borehole,First Aid Kit,,Yes,,2020/2021,11,6,17
GOMBE,KALTUNGO,HOLY TRINITY KWEN NURSERY AND PRIMARY SCHOOL,9.8,11.49,KALTUNGO,YIRI,1160740090,Private Education,Rural,Regular,No,Well,No Health facility,,No,,2020/2021,17,25,42
GOMBE,KALTUNGO,ST JOHN NURSERY AND PRIMARY SCHOOL LOBWI,,,WANGE,BWELE,1160740091,Private Education,Rural,Regular,No,Borehole,No Health facility,,No,,2020/2021,46,38,84
GOMBE,KALTUNGO,TSANGAYA KANGUBO,9.808737,11.309329,KALTUNGO EAST,TSANGAYA KANGUBO,1160740094,Private Education,Urban,Islamiyya integrated,No,Borehole,No Health facility,,No,,2020/2021,50,92,142
GOMBE,KALTUNGO,DIFAH INTERNATION GRAMMA ACADEMIC  TULA,9.839238,11.461642,AWAK,AWAK,1160740095,Private Education,Rural,Regular,No,No Source of Safe Water,First Aid Kit,,No,,2020/2021,74,77,151
GOMBE,KALTUNGO,MAITULE MEMORIAL ACADEMY,9.8451,11.4712,TULA,LOBI LAKALE,1160740098,Private Education,Rural,Regular,No,No Source of Safe Water,First Aid Kit,,No,,2020/2021,58,62,120
GOMBE,KALTUNGO,BAULE CENTRAL ISLAMIYYA,,,BAULE,ALONG DOGON RUWA ROAD,1160740099,Private Education,Rural,Islamiyya integrated,No,Well,No Health facility,,No,,2020/2021,36,52,88
GOMBE,KALTUNGO,ECWA MANZO MEMORIAL NURSERY AND PRIMARY SCHOOL,9.807,11.486,YIRI,YIRI,1160740101,Private Education,Rural,Regular,No,Borehole,No Health facility,,Yes,,2020/2021,130,115,245
GOMBE,KALTUNGO,ASAS NURSERY AND PRIMARY SCHOOL TULA KALTIN,9.921862,11.471935,GULE KALTIN,ASAS NURSERY AND PRIMARY SCHOOL KALTIN TULA,1160740102,Private Education,Rural,Regular,No,No Source of Safe Water,No Health facility,,No,,2020/2021,31,44,75
GOMBE,KALTUNGO,PECULIAR CHILDREN SCHOOL LAPANDIMTAI,9822365.0,11326372.0,KALTUNGO WEST,ECWA NAZARET STREET LAPANDINTAI,1160740103,Private Education,Urban,Regular,No,No Source of Safe Water,First Aid Kit,,No,,2020/2021,36,21,57
GOMBE,KALTUNGO,TRUSTEE MICHEAL LAMAYI ACADEMY LAKWEME,9.71384,11.41118,KALTUNGO EAST,"LAKWEME, KALTUNGO",1160740104,Private Education,Rural,Regular,No,No Source of Safe Water,No Health facility,,No,,2020/2021,45,22,67
GOMBE,KALTUNGO,TALBA INTERNATIONAL ACADEMY NUR. & PRI. SCH.,9.973608,11.488995,BULE KALTIN,OPPOSITE MASALLACIN JUMA'AT DOGONRUWA,1160740105,Private Education,Rural,Regular,No,Well,First Aid Kit,,No,,2020/2021,54,11,65
GOMBE,KALTUNGO,WUYAKA ACADEMIC NUR AND PRI SCHOOL,9.9,11.44,AWAK,"GALADIMA STREET, NEAR BATABO MOSQUE",1160740107,Private Education,Rural,Regular,Yes,No Source of Safe Water,No Health facility,,Yes,,2020/2021,32,25,57
GOMBE,KALTUNGO,ECWA NURSERY & PRIMARY SCHOOL PATUWANA,9.9505502,1.1338602,KAMO,ALONG DOGONRUWA ROAD NEAR ECWA CHURCH,1160740108,Private Education,Rural,Regular,No,Borehole,First Aid Kit,,No,,2020/2021,69,56,125
GOMBE,KALTUNGO,ISA SARKIN RAFI NURSERY AND PRIMARY SCHOOL,9.970823,11.47969,AWAK,DOGONRUWA NEAR ECWA CHURCH NO 1 DOGONRUWA,1160740111,Private Education,Rural,Regular,Yes,Well,First Aid Kit,,No,,2020/2021,124,103,227
GOMBE,KALTUNGO,ECWA SHEHU KWASSAM MEMORIAL NUR & PRIM. TURE OKRA,9.849,11.3615,TURE WARD,,1160740112,Private Education,Rural,Regular,No,No Source of Safe Water,No Health facility,,No,,2020/2021,20,29,49
GOMBE,KALTUNGO,ECWA NURSERY & PRIMARY SCHOOL SHENGE SHENGE,9.58543243,11.20565598,KAMO,BEHIND SHENGE SHENGE ECWA CHURCH,1160740114,Private Education,Rural,Regular,No,Other,First Aid Kit,,No,,2020/2021,60,49,109
GOMBE,KALTUNGO,UNITY NURSERY & PRIMARY SCHOOL GUJUBA,9942878.0,1134293.0,TUNGO,GUJUBA ALONG DOGONRUWA ROAD,1160740115,Private Education,Rural,Regular,No,No Source of Safe Water,First Aid Kit,,No,,2020/2021,31,21,52
GOMBE,KALTUNGO,DIYELBU MODEL SCHOOL,9.869,11.4,AWAK,ALONG DOGONRUWA TALASSE NEAR ECWA  CHURCH KUNGE,1160740116,Private Education,Rural,Regular,No,Borehole,First Aid Kit,,No,,2020/2021,10,9,19
GOMBE,KALTUNGO,KEYSTONE INTERNATIONAL ACADEMY,,,KALTUNGO WEST,LAPANDIMTAI KALTUNGO,1160740117,Private Education,Rural,Regular,No,No Source of Safe Water,First Aid Kit,,No,,2020/2021,130,131,261
GOMBE,KALTUNGO,MODERN REALISTIC ACADEMY NURSERY/PRIMARY SCHOOL,,,YIRI,OPPOSITE GALADIMA YIRI PRIMARY SCHOOL,1160740119,Private Education,Rural,Regular,No,No Source of Safe Water,First Aid Kit,,No,,2020/2021,41,32,73
GOMBE,KALTUNGO,GOD FAVOUR ACADEMIC NURSERY AND PRIMARY,9.829995,11.298146,KALTUNGO WEST,SHEHU AWAK ROAD,1160740120,Private Education,Urban,Regular,No,Borehole,First Aid Kit,,No,,2020/2021,37,35,72
GOMBE,KALTUNGO,MALAM MANU JULDE TSANGAYA PATUWAWA,11.34,,KAMO,BILLIRI DOGON RUWA ROAD,1160740121,Private Education,Rural,Islamiyya integrated,No,No Source of Safe Water,Health Clinic,,No,,2020/2021,53,33,86
GOMBE,KALTUNGO,SHEHU AWAK NURSERY AND PRIMARY SCHOOL KALTUNGO,,,KALTUNGO WEST,SHEHU AWAK STREET KALTUNGO,1160740122,Private Education,Urban,Regular,No,Well,No Health facility,,No,,2020/2021,62,100,162
GOMBE,KALTUNGO,TAHFEEZUL QURAN LAPANDIMTAI,9813275.0,11320597.0,KALTUNGO WEST,BEHIND MAI KALTUNGO PALACE LAPANDIMTAI,1160740123,Private Education,Urban,Islamiyya integrated,No,Borehole,First Aid Kit,,No,,2020/2021,27,107,134
GOMBE,KALTUNGO,ECWA KWARI MAORI MEMORIAL SECONDARY SCHOOL,,,YIRI,YAMEL DCC,1160740124,Private Education,Rural,Regular,No,Borehole,First Aid Kit,,No,,2020/2021,174,117,291
GOMBE,KALTUNGO,ST MATHEW NURSERY AND PRIMARY SCHOOL,,,BULE KALTIN,NEAR SABON GARI JSS BULE,1160740125,Private Education,Rural,Regular,No,No Source of Safe Water,First Aid Kit,,No,,2020/2021,25,28,53
GOMBE,KALTUNGO,HOPE ACADEMY,,,TURE,ALONG YOLA ROAD,1160740126,Private Education,Rural,Regular,No,No Source of Safe Water,No Health facility,,No,,2020/2021,42,46,88
GOMBE,KALTUNGO,MADARASATUL RIYADIL ADFAL SABON LAYI AWAK,9.93,11.44,AWAK,SABON LAYI AWAK,1160740127,Private Education,Rural,Regular,No,Borehole,No Health facility,,No,,2020/2021,56,74,130
GOMBE,KALTUNGO,MALAM ABUBAKAR KOFAR SARKIN GUJUBA TSANGAYA,99.43128,11.33027,KAMO,BILLIRI DOGONRUWA ROAD GUGUBA,1160740129,Private Education,Rural,Islamiyya integrated,No,No Source of Safe Water,No Health facility,,No,,2020/2021,85,55,140
GOMBE,KALTUNGO,MADARASATU SHEIK DAHIRU USMAN BAUCHI,99402450.0,11324990.0,KAMO,BILLIRI ROAD DOGON RUWA,1160740130,Private Education,Rural,Islamiyya integrated,No,Borehole,First Aid Kit,,No,,2020/2021,58,44,102
GOMBE,KALTUNGO,MADARASATUL LIL UMMATI ISLAMIYA LAPANDIMTAI,9.808732,111.309391,KALTUNGO WEST,BEHIND ECWA SABON LAYI,1160740131,Private Education,Urban,Islamiyya integrated,Yes,Borehole,No Health facility,,No,,2020/2021,54,46,100
GOMBE,KALTUNGO,MALAM SALE JIBIR TSANGAYA JAURO BOSE,99517006.0,11194306.0,KAMO,JAURO BOSE,1160740132,Private Education,Rural,Islamiyya integrated,No,Well,No Health facility,,No,,2020/2021,35,22,57
GOMBE,KALTUNGO,DELIGHT NURSERY PRIMARY SCHOOL,9.81975,11.31165,KAMO,LATARIN KAMO ALONG DOGON RUWA,1160740133,Private Education,Rural,Regular,No,No Source of Safe Water,First Aid Kit,,No,,2020/2021,26,19,45
GOMBE,KALTUNGO,MALAM ABUBAKAR YERIMA TSANGAYA DATUWANA,9.501508,1.1341208,KAMU,BILLIRI ROAD DOGON RUWA,1160740134,Private Education,Rural,Islamiyya integrated,No,No Source of Safe Water,First Aid Kit,,No,,2020/2021,50,51,101
GOMBE,KALTUNGO,HAMMASAYO TSANGAYA YALWA KAMO,9.2127,10.42,KAMO,,1160740135,Private Education,Rural,Islamiyya integrated,No,No Source of Safe Water,No Health facility,,No,,2020/2021,20,24,44
GOMBE,KALTUNGO,TSANGAYA MALAM ILIYA,,,KALTUNGO WEST,BEHIND LAPANDIMTAI MOUNTAIN,1160740136,Private Education,Urban,Islamiyya integrated,Yes,No Source of Safe Water,No Health facility,,No,,2020/2021,67,25,92
GOMBE,KALTUNGO,BAWURO MEMORIAL ISLAMIYYA,99449003.0,11330112.0,KAMO,BILLIRI DOGON RUWA GUJUBA ROAD,1160740137,Private Education,Rural,Islamiyya integrated,No,No Source of Safe Water,No Health facility,,No,,2020/2021,36,50,86
GOMBE,KALTUNGO,DAURAWA ISLAMIC SCHOOL,9.930613,11.444335,AWAK,SABON LAYI AWAK,1160740139,Private Education,Rural,Islamiyya integrated,No,No Source of Safe Water,No Health facility,,No,,2020/2021,10,20,30
GOMBE,KALTUNGO,NASARAWA TAFEEZUL QUR'AN,,,KALTUNGO WEST,NEAR OLD NEPA OFFICE NASARAWA,1160740142,Private Education,Urban,Islamiyya integrated,No,No Source of Safe Water,No Health facility,,Yes,,2020/2021,55,58,113
GOMBE,KALTUNGO,MOUNTAIN TOP NURSERY PRIMARY SCHOOL,,,KALTUNGO WEST,MOUNTAIN OF FIRE CHURCH LAPANDIMTAI,1160740144,Private Education,Urban,Regular,No,Other,No Health facility,,No,,2020/2021,1,3,4
GOMBE,KALTUNGO,TSANGAYA MALLAM WADARI ABBA ZANGE,10.011506,11.346345,KAMO,ZANGE JALINGO KAMO,1160740146,Private Education,Rural,Islamiyya integrated,No,No Source of Safe Water,No Health facility,,No,,2020/2021,104,47,151
GOMBE,KALTUNGO,ABUBAKAR ISAH TAHFIZUL QURAN LAPANDIMTAI,9.813276,11.320587,KALTUNGO EAST,LAPANDIMTAI,1160740148,Private Education,Urban,Regular,No,No Source of Safe Water,First Aid Kit,,No,,2020/2021,53,122,175
GOMBE,KALTUNGO,HILKER NURSERY AND PRIMARY SCHOOL,9.843553,11.471421,WANGE,WANGE,1160740149,Private Education,Rural,Regular,No,Other,First Aid Kit,,No,,2020/2021,49,61,110
GOMBE,KALTUNGO,MADARASATU MALJAUSSUNNAH TERMANA LAMBU,9.817493,11.308754,KALTUNGO WEST,JUMA'AT MOSQUE LAMBU,1160740150,Private Education,Urban,Regular,Yes,Borehole,First Aid Kit,,Yes,,2020/2021,119,136,255
GOMBE,KALTUNGO,LIBASUTTAQWA ISLAMIYYA,9.815084,11.314568,KALTUNGO WEST,BEHIND EMIRS PALACE KALTUNGO,1160740151,Private Education,Urban,Islamiyya integrated,No,Other,First Aid Kit,,Yes,,2020/2021,108,178,286
GOMBE,KALTUNGO,MAMUDA HAMZA LIBASUTTAQAWA CHILDREN,9.815859,11.323653,KALTUNGO WEST,COMMUNITY COLLEGE FOR ARABIC AND ISLAMIC STUDIES KALTUNGO,1160740152,Private Education,Urban,Regular,No,Borehole,First Aid Kit,,No,,2020/2021,103,135,238
GOMBE,KALTUNGO,MADARASATU TARBIYYATUL ISLAMIYYA BUKLI,,,BUKLI KAMO,ALONG DOGON RUWA WAY,1160740153,Private Education,Rural,Regular,Yes,No Source of Safe Water,No Health facility,,Yes,,2020/2021,0,35,35
GOMBE,KALTUNGO,MALAM TIJJANI TSANGAYA GUJUBA,99.445225,11.329735,KAMO,ALONG BILLIRI DOGON RUWA ROAD,1160740155,Private Education,Rural,Regular,No,No Source of Safe Water,No Health facility,,No,,2020/2021,130,105,235
GOMBE,KALTUNGO,MIFTAHUL ILMU ISLAMIYYA GUJUBA,99.44266,11.32744,KAMO,ALONG BILLIRI DOGON RUWA ROAD,1160740157,Private Education,Rural,Islamiyya integrated,Yes,No Source of Safe Water,First Aid Kit,,Yes,,2020/2021,20,20,40
GOMBE,KALTUNGO,GREAT FOUNDATION ACADEMY,9.1178,11.4427,KALTUNGO WEST,PDP OFFICE KALTUNGO,1160740158,Private Education,Urban,Regular,No,Well,No Health facility,,No,,2020/2021,22,25,47
GOMBE,KALTUNGO,MISBAHUS SUNNAH NURSERY AND PRIMARY SCHOOL BAMBAM,9.7025,11.5358,YIRI,ALONG YOLA ROAD BAMBAM,1160740159,Private Education,Rural,Regular,No,No Source of Safe Water,First Aid Kit,,No,,2020/2021,86,54,140
GOMBE,KALTUNGO,JIBWIS ISLAMIYYA BAKIN KASUWA,,,KALTUNGO WEST,MAIN MARKET KALTUNGO,1160740160,Private Education,Rural,Regular,No,No Source of Safe Water,First Aid Kit,,No,,2020/2021,59,83,142
GOMBE,KALTUNGO,ELELYON WISDOM PARADIGM ACADEMY,9821032.0,11319450.0,KALTUNGO WEST,NEAR DEEPER LIFE BIBLE CHURCH LAPANDIMTAI,1160740161,Private Education,Urban,Regular,No,Other,First Aid Kit,,No,,2020/2021,20,13,33
GOMBE,KALTUNGO,MADARASATUL RAUDATUL QUR'AN NURSERY AND PRIMARY SCHOOL,9.814402,11.313758,KALTUNGO EAST,WAZIRI STREET KALARING KALTUNGO,1160740163,Private Education,Urban,Regular,No,Borehole,First Aid Kit,,Yes,,2020/2021,160,146,306
GOMBE,KALTUNGO,TSANGAYAN MALAM BAFFA SALEH,10.026682,11.314818,KAMO,JALINGO KAMO,1160740164,Private Education,Rural,Islamiyya integrated,No,No Source of Safe Water,No Health facility,,No,,2020/2021,210,112,322
GOMBE,KALTUNGO,ECWA NURSERY AND PRIMARY SCHOOL JALINGO,9.91,11.55,BAULE CENTRAL,ANGUWAN MISSION JALINGO TULA BAULE,1160740165,Private Education,Rural,Regular,No,No Source of Safe Water,First Aid Kit,,No,,2020/2021,72,72,144
GOMBE,KALTUNGO,GSTC TULA,9.805337,11.449752,TULA,EMIR STREET WANGE TULA KALTUNGO LOCAL GOVERNMENT GOMBE STATE,1160750001,Science and Vocational,Rural,Science and Technology College,No,No Source of Safe Water,No Health facility,No,No,No,2020/2021,447,0,447
GOMBE,KALTUNGO,GOVT VOCATIONAL TRAINING CENTRE KAMO,9.9523833,11.338943,KAMO,GUJUBA  AWAK DOGON RUWA ROAD,1160750003,Science and Vocational,Rural,Vocational Training Centre,No,No Source of Safe Water,First Aid Kit,No,No,No,2020/2021,64,45,109
GOMBE,KALTUNGO,GOVERNMENT VOCATIONAL TRAINING CENTRE TULA,9.860262,11.482442,WANGE,EMIR'S STREET TULA,1160750004,Science and Vocational,Rural,Regular,No,No Source of Safe Water,No Health facility,No,No,No,2020/2021,62,62,124
GOMBE,KALTUNGO,GOVERNMENT VOCATIONAL TRAINING CENTRE KALTUNGO,9.8408693,11.2794,KALORGU,ALONG BILLIRI RAOD,1160750005,Science and Vocational,Urban,Vocational Training Centre,No,Borehole,First Aid Kit,No,No,No,2020/2021,125,62,187
